FID,brand,name,place_id,latitude,longitude,FID_2,State,Parliament,DUN,night,pop_d,family_inc,family_out
0,99 Speedmart,99 Speedmart 2167 (JH) Taman Molek,ChIJ8TLFuS5t2jER389Xg-qBDHs,1.528385,103.7929195,0,JOHOR,PASIR GUDANG,JOHOR JAYA,22.1,2011.5,7142,4605
1,99 Speedmart,99 Speedmart 2163 (JH) Plentong,ChIJ3VTNEoht2jERXCKjSLmJEi0,1.5224585,103.8132539,0,JOHOR,PASIR GUDANG,JOHOR JAYA,22.1,2011.5,7142,4605
3,99 Speedmart,99 Speedmart 2382 (JH) Taman Johor Jaya,ChIJV9Ow3Ltt2jERU4wzyiqqZvk,1.5378128,103.8101011,0,JOHOR,PASIR GUDANG,JOHOR JAYA,22.1,2011.5,7142,4605
10,99 Speedmart,99 Speedmart 2534 (JH) Taman Johor Jaya 2,ChIJ0-Hl4z9t2jERO7zeZx5SjJM,1.539972,103.8059339,0,JOHOR,PASIR GUDANG,JOHOR JAYA,22.1,2011.5,7142,4605
12,99 Speedmart,99 Speedmart 2887 (JH) Taman Molek 2,ChIJn402RtVt2jERcpzl-kQ9_do,1.5218631,103.7864351,0,JOHOR,PASIR GUDANG,JOHOR JAYA,22.1,2011.5,7142,4605
15,99 Speedmart,99 Speedmart 2844 (JH) Taman Johor Jaya 5,ChIJpX9-QvZt2jER07UAEcZtVEQ,1.5321395,103.8094627,0,JOHOR,PASIR GUDANG,JOHOR JAYA,22.1,2011.5,7142,4605
20,KK Super Mart,"KK Super Mart Johor, Taman Johor Jaya (JJJY)",ChIJQb0IbSlt2jERK3ko50kp4Is,1.5401116,103.806088,0,JOHOR,PASIR GUDANG,JOHOR JAYA,22.1,2011.5,7142,4605
23,99 Speedmart,99 Speedmart 2777 (JH) Taman Johor Jaya 3,ChIJ7XJBhFVt2jERGxnSIQUfAcg,1.5442607,103.7951571,0,JOHOR,PASIR GUDANG,JOHOR JAYA,22.1,2011.5,7142,4605
40,99 Speedmart,99 Speedmart 3258 (JH) Taman Johor Jaya 6,ChIJ-wgSzxRt2jERhvpGEwTwtp8,1.5344827,103.793081,0,JOHOR,PASIR GUDANG,JOHOR JAYA,22.1,2011.5,7142,4605
47,99 Speedmart,99 Speedmart 3071 (JH) Taman Sri Amar,ChIJtRs_4ght2jERRQ8l6x1gaL8,1.5168964,103.762705,0,JOHOR,PASIR GUDANG,JOHOR JAYA,22.1,2011.5,7142,4605
52,99 Speedmart,99 Speedmart 2814 (JH) Taman Johor Jaya 4,ChIJ6dbqTsFt2jER5xcLmdNxUWQ,1.5445289,103.8044874,0,JOHOR,PASIR GUDANG,JOHOR JAYA,22.1,2011.5,7142,4605
53,99 Speedmart,99 Speedmart 3101 (JH) Taman Desa Harmoni,ChIJHZdL-H9t2jERQjFu_yWyTtM,1.5195836,103.7964105,0,JOHOR,PASIR GUDANG,JOHOR JAYA,22.1,2011.5,7142,4605
54,99 Speedmart,99 Speedmart 2730 (JH) Molek Ria,ChIJTXvAxZht2jER43hF27CFzhU,1.515677,103.790387,0,JOHOR,PASIR GUDANG,JOHOR JAYA,22.1,2011.5,7142,4605
63,99 Speedmart,99 Speedmart 2825 (JH) Taman Ria Plentong,ChIJe0NDw_1r2jERr8bNPe8RJaE,1.5195921,103.8248439,0,JOHOR,PASIR GUDANG,JOHOR JAYA,22.1,2011.5,7142,4605
66,99 Speedmart,99 Speedmart 2632 (JH) Bandar Seri Alam 3,ChIJ8WlfnI5r2jERGLwzlQVRGx4,1.5076347,103.8607197,0,JOHOR,PASIR GUDANG,JOHOR JAYA,22.1,2011.5,7142,4605
117,99 Speedmart,99 Speedmart 2194 (JH) Bandar Seri Alam,ChIJF536iaNr2jERgq3bJ4GYeaM,1.5085005,103.8682861,0,JOHOR,PASIR GUDANG,JOHOR JAYA,22.1,2011.5,7142,4605
217,KK Super Mart,"KK Super Mart Johor, Taman Johor Jaya (3) ( JJY3)",ChIJgZJ4cHlt2jERJAQIKL7sCFM,1.5425616,103.7937721,0,JOHOR,PASIR GUDANG,JOHOR JAYA,22.1,2011.5,7142,4605
219,KK Super Mart,"KK Super Mart Johor, Taman Johor Jaya (2) (JJY2)",ChIJlZXink1t2jERHKLAb2QARpw,1.5365487,103.810877,0,JOHOR,PASIR GUDANG,JOHOR JAYA,22.1,2011.5,7142,4605
241,KK Super Mart,"KK Super Mart Johor, Masai, Seri Alam ( JMSA )",ChIJ1XgEpCJr2jERprxpziyNgEM,1.5089696,103.8669115,0,JOHOR,PASIR GUDANG,JOHOR JAYA,22.1,2011.5,7142,4605
255,KK Super Mart,"KK Super Mart Johor, Masai Seri Alam (2) ( JMA2 )",ChIJ-bplh71r2jERAGGseJb5Ml8,1.49344,103.874589,0,JOHOR,PASIR GUDANG,JOHOR JAYA,22.1,2011.5,7142,4605
276,7-Eleven,7-Eleven,ChIJD0dAXVBs2jERnu0vJm5eLZA,1.522289,103.785321,0,JOHOR,PASIR GUDANG,JOHOR JAYA,22.1,2011.5,7142,4605
283,Family Mart,FamilyMart Johor Jaya,ChIJVY8yJtlt2jERb0vo6nhcFAw,1.5404758,103.8045111,0,JOHOR,PASIR GUDANG,JOHOR JAYA,22.1,2011.5,7142,4605
284,Family Mart,FamilyMart Taman Molek,ChIJX70iEiht2jERkFXMS35XpjQ,1.5225334,103.7853192,0,JOHOR,PASIR GUDANG,JOHOR JAYA,22.1,2011.5,7142,4605
311,Family Mart,FamilyMart Gravity Green,ChIJh6fdYsdr2jERHe5cbc7-4XY,1.4962035,103.8728633,0,JOHOR,PASIR GUDANG,JOHOR JAYA,22.1,2011.5,7142,4605
336,7-Eleven,7-Eleven,ChIJrdB5bERs2jER79IohKai104,1.527309,103.791584,0,JOHOR,PASIR GUDANG,JOHOR JAYA,22.1,2011.5,7142,4605
348,7-Eleven,7CAF??? by 7-Eleven Dedap Johor Bahru Johor (#204),ChIJbzHmkg1s2jERLs9b6h1EcwM,1.5419495,103.8032771,0,JOHOR,PASIR GUDANG,JOHOR JAYA,22.1,2011.5,7142,4605
351,7-Eleven,7-Eleven,ChIJpYhadT9s2jER4irxKwLqfZ4,1.534668,103.79548,0,JOHOR,PASIR GUDANG,JOHOR JAYA,22.1,2011.5,7142,4605
362,7-Eleven,7-Eleven,ChIJN9erHnNs2jER034CK3zejic,1.5318608,103.8131975,0,JOHOR,PASIR GUDANG,JOHOR JAYA,22.1,2011.5,7142,4605
369,7-Eleven,7-Eleven,ChIJET8OU9Rt2jERD_Xq0Sl9vd8,1.5303658,103.7920644,0,JOHOR,PASIR GUDANG,JOHOR JAYA,22.1,2011.5,7142,4605
370,7-Eleven,7-Eleven,ChIJoWQL3F1s2jER6qlhva6VY1g,1.519703,103.7966529,0,JOHOR,PASIR GUDANG,JOHOR JAYA,22.1,2011.5,7142,4605
374,7-Eleven,7-Eleven,ChIJk-Tvjg1s2jER0VCGAKopnho,1.536507,103.8105353,0,JOHOR,PASIR GUDANG,JOHOR JAYA,22.1,2011.5,7142,4605
389,7-Eleven,7-Eleven,ChIJzwTqDgJr2jER2P9bWItMB04,1.5087434,103.8676167,0,JOHOR,PASIR GUDANG,JOHOR JAYA,22.1,2011.5,7142,4605
392,7-Eleven,7-Eleven,ChIJ_WYxVOdq2jERyuR7Pa6dFpo,1.4944015,103.8743404,0,JOHOR,PASIR GUDANG,JOHOR JAYA,22.1,2011.5,7142,4605
465,7-Eleven,7-Eleven,ChIJk2ATq_xq2jERXK-tAHVsKmI,1.5048398,103.8734119,0,JOHOR,PASIR GUDANG,JOHOR JAYA,22.1,2011.5,7142,4605
515,MyNews,myNEWS (Maru Kafe) @ Taman Molek JB,ChIJt_g-hvht2jERDwub-cy_mO8,1.5250148,103.7869622,0,JOHOR,PASIR GUDANG,JOHOR JAYA,22.1,2011.5,7142,4605
517,MyNews,myNEWS @ Giant Plentong (G Floor),ChIJAVuFXHFs2jERXAhnXL1Uk84,1.5273425,103.8154845,0,JOHOR,PASIR GUDANG,JOHOR JAYA,22.1,2011.5,7142,4605
533,MyNews,myNEWS @ Bandar Seri Alam,ChIJrz21XrVr2jER_ix9M0-B168,1.5049877,103.8733596,0,JOHOR,PASIR GUDANG,JOHOR JAYA,22.1,2011.5,7142,4605
2,99 Speedmart,99 Speedmart 2281 (JH) Taman Daya 2,ChIJG3sZ4qVt2jER3ingkRWKIUY,1.5405578,103.7656412,1,JOHOR,TEBRAU,PUTERI WANGSA,21.7,1712,8235,6071
4,99 Speedmart,99 Speedmart 2223 (JH) Taman Mount Austin,ChIJr5kYuFtt2jERj0AnjO2yNVc,1.5503321,103.7844612,1,JOHOR,TEBRAU,PUTERI WANGSA,21.7,1712,8235,6071
5,99 Speedmart,99 Speedmart 2833 (JH) Taman Desa Tebrau 2,ChIJ9de04dNv2jERDKvAXRfSDCc,1.5539195,103.7956174,1,JOHOR,TEBRAU,PUTERI WANGSA,21.7,1712,8235,6071
7,99 Speedmart,99 Speedmart 2360 (JH) Taman Adda 1,ChIJ36WclRtv2jERc2Xo1fLW9ZY,1.564025,103.7524823,1,JOHOR,TEBRAU,PUTERI WANGSA,21.7,1712,8235,6071
8,99 Speedmart,99 Speedmart 3087 (JH) Bandar Dato Onn 2,ChIJ62UD7nVv2jERhhMHDrUzLHM,1.5681893,103.7429584,1,JOHOR,TEBRAU,PUTERI WANGSA,21.7,1712,8235,6071
11,99 Speedmart,99 Speedmart 2873 (JH) Bandar Dato Onn,ChIJiYe9Ay5v2jERkeOJXS0stMg,1.5582765,103.7390867,1,JOHOR,TEBRAU,PUTERI WANGSA,21.7,1712,8235,6071
13,99 Speedmart,99 Speedmart 3155 Taman Daya 5,ChIJST_208Nt2jER0sDmwuELgZ4,1.545215,103.7652282,1,JOHOR,TEBRAU,PUTERI WANGSA,21.7,1712,8235,6071
16,99 Speedmart,99 Speedmart 2783 (JH) Taman Setia Indah 3,ChIJg3qpksFv2jERwIGHJkaiLts,1.5739801,103.766968,1,JOHOR,TEBRAU,PUTERI WANGSA,21.7,1712,8235,6071
17,99 Speedmart,99 Speedmart 2562 (JH) Taman Mount Austin 2,ChIJJS4rFdtv2jERUamtwkUk8WM,1.5579181,103.7800615,1,JOHOR,TEBRAU,PUTERI WANGSA,21.7,1712,8235,6071
18,99 Speedmart,99 Speedmart 2874 (JH) Taman Desa Tebrau 3,ChIJ7_7CShdv2jERDAseOlxVlQg,1.55474,103.7895704,1,JOHOR,TEBRAU,PUTERI WANGSA,21.7,1712,8235,6071
19,99 Speedmart,99 Speedmart 2918 (JH) Taman Adda 2,ChIJGctBuGZt2jERBg49UJ8oEyQ,1.5470257,103.749506,1,JOHOR,TEBRAU,PUTERI WANGSA,21.7,1712,8235,6071
21,99 Speedmart,99 Speedmart 2975 (JH) Taman Setia Eco Cascadia,ChIJcyB73O1v2jER2AL4qj5jXq0,1.5815474,103.7598251,1,JOHOR,TEBRAU,PUTERI WANGSA,21.7,1712,8235,6071
22,99 Speedmart,99 Speedmart 2142 (JH) Taman Bukit Mutiara,ChIJSQiyxxVt2jERwe7YATzPJyo,1.5412824,103.7441787,1,JOHOR,TEBRAU,PUTERI WANGSA,21.7,1712,8235,6071
24,99 Speedmart,99 Speedmart 3316 (JH) Jalan Tampoi Susur,ChIJAcbmjO9t2jERz9ZI4oqF1Po,1.5200778,103.7513316,1,JOHOR,TEBRAU,PUTERI WANGSA,21.7,1712,8235,6071
25,99 Speedmart,99 Speedmart 2955 (JH) Taman Pelangi Indah 2,ChIJ6UxeOZxv2jERn-uObjnoAX4,1.5713095,103.8007196,1,JOHOR,TEBRAU,PUTERI WANGSA,21.7,1712,8235,6071
28,99 Speedmart,99 Speedmart 2512 (JH) Setia Indah 1,ChIJxyIpK9Rv2jERAz1xWeqI7gM,1.574377,103.7584292,1,JOHOR,TEBRAU,PUTERI WANGSA,21.7,1712,8235,6071
29,99 Speedmart,99 Speedmart 2148 (JH) Taman Puteri Wangsa,ChIJb3So_bZv2jEREDey8updBzs,1.5774209,103.811295,1,JOHOR,TEBRAU,PUTERI WANGSA,21.7,1712,8235,6071
30,99 Speedmart,99 Speedmart 2634 (JH) Taman Setia Indah 2,ChIJGV8Q3ndv2jERp48WnDY0pA8,1.5743094,103.7485915,1,JOHOR,TEBRAU,PUTERI WANGSA,21.7,1712,8235,6071
31,99 Speedmart,99 Speedmart 2769 (JH) Taman Daya 3,ChIJj6IoONBt2jERx6Ihny7f0PM,1.5518662,103.7604538,1,JOHOR,TEBRAU,PUTERI WANGSA,21.7,1712,8235,6071
33,99 Speedmart,99 Speedmart 3280 (JH) Taman Mount Austin 3,ChIJ4WXE8p1t2jER_BEfXm4nr7w,1.5456687,103.788991,1,JOHOR,TEBRAU,PUTERI WANGSA,21.7,1712,8235,6071
34,99 Speedmart,99 Speedmart 2836 (JH) Taman Seri Austin,ChIJrywbAj1v2jERj4qsq68QncU,1.5834309,103.7371165,1,JOHOR,TEBRAU,PUTERI WANGSA,21.7,1712,8235,6071
35,99 Speedmart,99 Speedmart 2132 (JH) Taman Pelangi Indah,ChIJRY5o7iFv2jER57S_yGel2vM,1.577464,103.8005229,1,JOHOR,TEBRAU,PUTERI WANGSA,21.7,1712,8235,6071
37,99 Speedmart,99 Speedmart 3157 (JH) Taman Austin Perdana,ChIJk6ovLWJt2jER0pYyppYQeEw,1.547066,103.781037,1,JOHOR,TEBRAU,PUTERI WANGSA,21.7,1712,8235,6071
38,99 Speedmart,99 Speedmart 2863 (JH) Taman Daya 4,ChIJEUZ1jQZv2jER2EdxQjVI2Vk,1.5610008,103.7586687,1,JOHOR,TEBRAU,PUTERI WANGSA,21.7,1712,8235,6071
39,99 Speedmart,99 Speedmart 3245 (JH) Bandar Jaya Putra,ChIJ7emsZwtv2jERA-g21pgn7zg,1.5792464,103.7685347,1,JOHOR,TEBRAU,PUTERI WANGSA,21.7,1712,8235,6071
41,99 Speedmart,99 Speedmart 2210 (JH) Taman Puteri Wangsa 2,ChIJbc0ijlRv2jER6e1tCIB5CSE,1.5913199,103.8027509,1,JOHOR,TEBRAU,PUTERI WANGSA,21.7,1712,8235,6071
42,99 Speedmart,99 Speedmart 3125 (JH) Bandar Dato Onn 3,ChIJwfipXpVv2jERtXqvhWJ9MCA,1.5632524,103.7331487,1,JOHOR,TEBRAU,PUTERI WANGSA,21.7,1712,8235,6071
43,99 Speedmart,99 Speedmart 3535 (JH) Taman Daya 6,ChIJ_50FiUtt2jERhDd1WJJcqDk,1.5448311,103.7572968,1,JOHOR,TEBRAU,PUTERI WANGSA,21.7,1712,8235,6071
44,99 Speedmart,99 Speedmart 2206 (JH) Taman Daya,ChIJQYx1JHZv2jER5ZUcm7buq9s,1.5551842,103.7558483,1,JOHOR,TEBRAU,PUTERI WANGSA,21.7,1712,8235,6071
49,99 Speedmart,99 Speedmart 2105 (JH) Taman Desa Tebrau,ChIJY2iq7GVv2jER1-B7Krs49OU,1.5655393,103.794714,1,JOHOR,TEBRAU,PUTERI WANGSA,21.7,1712,8235,6071
51,99 Speedmart,99 Speedmart 2519 (JH) Taman Ekoperniagaan,ChIJa0FjUh5x2jER8A7joDYCbBA,1.5775014,103.724916,1,JOHOR,TEBRAU,PUTERI WANGSA,21.7,1712,8235,6071
55,99 Speedmart,99 Speedmart 3582 (JH) Taman Bukit Jaya,ChIJ40WAGdNv2jERGNRkLra-RUk,1.5988472,103.8082719,1,JOHOR,TEBRAU,PUTERI WANGSA,21.7,1712,8235,6071
69,99 Speedmart,99 Speedmart 2215 (JH) Taman Bestari Indah,ChIJCxvSORhv2jER0oinvELcwwU,1.5978979,103.7951847,1,JOHOR,TEBRAU,PUTERI WANGSA,21.7,1712,8235,6071
76,99 Speedmart,99 Speedmart (JH) Taman Ekoflora,ChIJ9fjzq_9v2jERSxx4GQD7ZPM,1.6008388,103.7520249,1,JOHOR,TEBRAU,PUTERI WANGSA,21.7,1712,8235,6071
79,99 Speedmart,99 Speedmart 2669 (JH) Taman Kempas Indah,ChIJZWa36EFz2jERaIjvR1aO-HQ,1.5523511,103.7178654,1,JOHOR,TEBRAU,PUTERI WANGSA,21.7,1712,8235,6071
80,99 Speedmart,99 Speedmart 2234 (JH) Taman Setia Tropika,ChIJvV_XBrxz2jERj0GJm3rXRKs,1.5469442,103.7160037,1,JOHOR,TEBRAU,PUTERI WANGSA,21.7,1712,8235,6071
81,99 Speedmart,99 Speedmart 3415 (JH) Taman Kempas Utama 2,ChIJ0y8TrF1x2jERO6nSRkzUqZM,1.5562029,103.7119483,1,JOHOR,TEBRAU,PUTERI WANGSA,21.7,1712,8235,6071
83,99 Speedmart,99 Speedmart 2661 (JH) Taman Kempas Utama,ChIJxbJ7Qv9x2jERUKBOOCmLe8E,1.5479869,103.7058105,1,JOHOR,TEBRAU,PUTERI WANGSA,21.7,1712,8235,6071
86,99 Speedmart,99 Speedmart 3064 (JH) Taman Perindustrian I-PARK SAC,ChIJjZURRx9x2jERiwzJTdNPTwQ,1.5969168,103.6785128,1,JOHOR,TEBRAU,PUTERI WANGSA,21.7,1712,8235,6071
210,KK Super Mart,"KK Super Mart Johor, Taman Puteri Wangsa ( JTPW)",ChIJ4zsaxfBv2jERm7XgfngydIQ,1.5905498,103.8061653,1,JOHOR,TEBRAU,PUTERI WANGSA,21.7,1712,8235,6071
211,KK Super Mart,KK Super Mart Johor Taman Setia Indah (JSID),ChIJ3SmNy1pv2jER_AX_HKbVeo8,1.5726516,103.7567385,1,JOHOR,TEBRAU,PUTERI WANGSA,21.7,1712,8235,6071
212,KK Super Mart,KK SUPER MART Adda Heights (JADH),ChIJqxVSzfxt2jER_wIB6BCDfSg,1.5471918,103.7472426,1,JOHOR,TEBRAU,PUTERI WANGSA,21.7,1712,8235,6071
213,KK Super Mart,"KK SUPER MART Johor, Taman Daya(JTDY)",ChIJ3-VFph9v2jERBNxbF7Y89ws,1.5599941,103.7585829,1,JOHOR,TEBRAU,PUTERI WANGSA,21.7,1712,8235,6071
214,KK Super Mart,"KK Super Mart Johor, Ulu Tiram, Taman Gaya (JUTG)",ChIJOwoMA1dv2jERmeg1DdgjCjg,1.5671922,103.8014824,1,JOHOR,TEBRAU,PUTERI WANGSA,21.7,1712,8235,6071
215,KK Super Mart,"KK Super mart Johor, Residensi KSL Kangkar Tebrau (JRKT)",ChIJ3UMVGBNt2jERIayejt3UCJc,1.5281696,103.7708878,1,JOHOR,TEBRAU,PUTERI WANGSA,21.7,1712,8235,6071
216,KK Super Mart,"KK SUPER MART Johor, Taman Mount Austin (JMTA)",ChIJ745CiMBv2jERZn9zgFYIRvs,1.5632619,103.7788696,1,JOHOR,TEBRAU,PUTERI WANGSA,21.7,1712,8235,6071
218,KK Super Mart,"KK Super Mart Johor, Taman Desa Tebrau (JTDT)",ChIJm1zVZVBv2jERp-kvfYRdEnU,1.5534278,103.7912032,1,JOHOR,TEBRAU,PUTERI WANGSA,21.7,1712,8235,6071
220,KK Super Mart,"KK Super Mart Johor, Bandar Dato Onn (JBDO)",ChIJYSoazjVv2jER5i7okcmtclo,1.5692133,103.7428411,1,JOHOR,TEBRAU,PUTERI WANGSA,21.7,1712,8235,6071
222,KK Super Mart,"KK Super Mart Johor, Taman Desa Mutiara ( JTDM )",ChIJ23gbuExt2jERxJp2oMC8HLY,1.5387735,103.7482126,1,JOHOR,TEBRAU,PUTERI WANGSA,21.7,1712,8235,6071
275,Family Mart,FamilyMart Taman Setia Indah,ChIJffSXFAhv2jERwoq_EKnDhMA,1.5722185,103.7568278,1,JOHOR,TEBRAU,PUTERI WANGSA,21.7,1712,8235,6071
277,Family Mart,FamilyMart Taman Gaya,ChIJCQbyvqVv2jER2TOoyom33eU,1.5626553,103.8003327,1,JOHOR,TEBRAU,PUTERI WANGSA,21.7,1712,8235,6071
278,Family Mart,FamilyMart Caltex Taman Puteri Wangsa,ChIJXQA_nE1v2jERgXI9fzZ08zA,1.5907416,103.8018392,1,JOHOR,TEBRAU,PUTERI WANGSA,21.7,1712,8235,6071
279,Family Mart,FamilyMart Taman Mount Austin,ChIJ89_Fse1v2jERWm1wUQkzWAA,1.5587898,103.7811505,1,JOHOR,TEBRAU,PUTERI WANGSA,21.7,1712,8235,6071
281,Family Mart,FamilyMart Taman Adda,ChIJLcPBt9xt2jERI67Ia6ocFus,1.5475422,103.7465789,1,JOHOR,TEBRAU,PUTERI WANGSA,21.7,1712,8235,6071
282,Family Mart,FamilyMart Caltex Mukim Tebrau,ChIJD-d3_VBt2jERxV6M7uK6-ss,1.5297573,103.7572752,1,JOHOR,TEBRAU,PUTERI WANGSA,21.7,1712,8235,6071
285,Family Mart,FamilyMart Toppen,ChIJ0TUEcaVv2jERndCVODRYPKI,1.553264,103.7971693,1,JOHOR,TEBRAU,PUTERI WANGSA,21.7,1712,8235,6071
288,Family Mart,FamilyMart Setia Tropika,ChIJ9_n9SHJz2jERATj-9IHzW3U,1.5454929,103.7116507,1,JOHOR,TEBRAU,PUTERI WANGSA,21.7,1712,8235,6071
330,7-Eleven,7CAF??? by 7-Eleven Pusat Perniagaan Ekoflora (#3082),ChIJUdPTQSlv2jER-nbqgu6U4bk,1.5887545,103.759241,1,JOHOR,TEBRAU,PUTERI WANGSA,21.7,1712,8235,6071
332,7-Eleven,7CAF??? by 7-Eleven Setia Indah 5 (#3116),ChIJB8CkQwBv2jER4MvIDZGs-DA,1.5742784,103.7487577,1,JOHOR,TEBRAU,PUTERI WANGSA,21.7,1712,8235,6071
333,7-Eleven,7-Eleven,ChIJB_wmBC9u2jERJsttrH3aQ7g,1.582965,103.7372086,1,JOHOR,TEBRAU,PUTERI WANGSA,21.7,1712,8235,6071
334,7-Eleven,7CAF??? by 7-Eleven Pelangi Indah Johor (#479),ChIJldcbZrlv2jERPsJ8Eu3pKBs,1.5721558,103.8011086,1,JOHOR,TEBRAU,PUTERI WANGSA,21.7,1712,8235,6071
337,7-Eleven,7-Eleven,ChIJQ8supolu2jERyhzcOFnb0Fg,1.5647155,103.7781524,1,JOHOR,TEBRAU,PUTERI WANGSA,21.7,1712,8235,6071
339,7-Eleven,7-Eleven,ChIJv28iF89u2jERzfL2h2poYag,1.5771632,103.8120607,1,JOHOR,TEBRAU,PUTERI WANGSA,21.7,1712,8235,6071
340,7-Eleven,7CAF??? by 7-Eleven Austin Waterpark Johor Bahru Johor (#1976),ChIJcbu-4Ydu2jERaaG8M46cRU8,1.56177,103.776459,1,JOHOR,TEBRAU,PUTERI WANGSA,21.7,1712,8235,6071
341,7-Eleven,7-Eleven,ChIJEQTC1b5u2jER0e-O5GAS9Hg,1.568832,103.8038951,1,JOHOR,TEBRAU,PUTERI WANGSA,21.7,1712,8235,6071
342,7-Eleven,7CAF??? by 7-Eleven Austin Heights Johor Bahru Johor (#1046),ChIJQ2tbXq9v2jERVyfBrzU2yW0,1.5616612,103.7787491,1,JOHOR,TEBRAU,PUTERI WANGSA,21.7,1712,8235,6071
344,7-Eleven,7CAF??? by 7-Eleven Puteri Wangsa 2 Johor (#2078),ChIJqVw7dydv2jERWobGLskNmYU,1.5906318,103.8068333,1,JOHOR,TEBRAU,PUTERI WANGSA,21.7,1712,8235,6071
345,7-Eleven,7CAF??? by 7-Eleven Setia Indah 4 (#3105),ChIJO_HIYgBv2jER1Z9LXzTuXAI,1.5767881,103.7583049,1,JOHOR,TEBRAU,PUTERI WANGSA,21.7,1712,8235,6071
347,7-Eleven,7-Eleven,ChIJbfwn_V9u2jERYFxJ9Yd-IVw,1.571438,103.7745832,1,JOHOR,TEBRAU,PUTERI WANGSA,21.7,1712,8235,6071
349,7-Eleven,7-Eleven,ChIJ8Wy3sZ1u2jEREUMqxVnW0Zk,1.5542013,103.7907179,1,JOHOR,TEBRAU,PUTERI WANGSA,21.7,1712,8235,6071
350,7-Eleven,7-Eleven,ChIJ7_3R5nVv2jERaTq7ViN_TBM,1.5699882,103.7436816,1,JOHOR,TEBRAU,PUTERI WANGSA,21.7,1712,8235,6071
352,7-Eleven,7-Eleven,ChIJ4Z-OFUJu2jERXSW0VPSX6Qk,1.5725447,103.7591169,1,JOHOR,TEBRAU,PUTERI WANGSA,21.7,1712,8235,6071
356,7-Eleven,7CAF??? by 7-Eleven Taman Desa Tebrau (#1290),ChIJaae05Z5u2jERL79FjSZL9Ow,1.5555036,103.7951889,1,JOHOR,TEBRAU,PUTERI WANGSA,21.7,1712,8235,6071
357,7-Eleven,7-Eleven electric chansaw,ChIJtzwBIu9t2jERg2SHoLeLzIY,1.5205126,103.7503663,1,JOHOR,TEBRAU,PUTERI WANGSA,21.7,1712,8235,6071
359,7-Eleven,7-Eleven,ChIJJSyuahty2jERMrqWd4249pk,1.5469453,103.7158409,1,JOHOR,TEBRAU,PUTERI WANGSA,21.7,1712,8235,6071
364,7-Eleven,7-Eleven,ChIJW1b5mgZy2jERJNu2ixm8jHo,1.5453251,103.7128071,1,JOHOR,TEBRAU,PUTERI WANGSA,21.7,1712,8235,6071
365,7-Eleven,7-11 Emas,ChIJ__rsFABv2jERSrO2QxPxvfk,1.5546985,103.7842466,1,JOHOR,TEBRAU,PUTERI WANGSA,21.7,1712,8235,6071
367,7-Eleven,7CAF??? by 7-Eleven Setia Tropika 4 (#2603),ChIJN5VTXH9z2jERjsIVtv6HScM,1.5473113,103.7119583,1,JOHOR,TEBRAU,PUTERI WANGSA,21.7,1712,8235,6071
368,7-Eleven,7-Eleven,ChIJs6NL2Sts2jERyynJjY8clgs,1.5464189,103.7878558,1,JOHOR,TEBRAU,PUTERI WANGSA,21.7,1712,8235,6071
371,7-Eleven,7-Eleven,ChIJz6dpnO9t2jERB6nPWw1hGhU,1.5422874,103.7431428,1,JOHOR,TEBRAU,PUTERI WANGSA,21.7,1712,8235,6071
372,7-Eleven,7-Eleven,ChIJvamTfgZu2jERjOKjwycgQVs,1.5571739,103.7378449,1,JOHOR,TEBRAU,PUTERI WANGSA,21.7,1712,8235,6071
373,7-Eleven,7-Eleven,ChIJi4NY_HRu2jERTuuuBpA5Oc8,1.5479342,103.7458098,1,JOHOR,TEBRAU,PUTERI WANGSA,21.7,1712,8235,6071
375,7-Eleven,7-Eleven,ChIJW_9o_HRu2jERAyPvA1nxsIU,1.5551315,103.7545329,1,JOHOR,TEBRAU,PUTERI WANGSA,21.7,1712,8235,6071
377,7-Eleven,7-Eleven,ChIJHyaojtpt2jERwIu3aPzI5FI,1.5451924,103.762589,1,JOHOR,TEBRAU,PUTERI WANGSA,21.7,1712,8235,6071
378,7-Eleven,7-Eleven,ChIJmXFcxsJu2jER-7di9TVPXrE,1.579839,103.8001429,1,JOHOR,TEBRAU,PUTERI WANGSA,21.7,1712,8235,6071
381,7-Eleven,7-Eleven,ChIJ788CkHFu2jER8-3ZEYQN05k,1.5602908,103.7585678,1,JOHOR,TEBRAU,PUTERI WANGSA,21.7,1712,8235,6071
383,7-Eleven,7-Eleven,ChIJw064rUxv2jERp8Y9ouwzDxc,1.5537451,103.7975711,1,JOHOR,TEBRAU,PUTERI WANGSA,21.7,1712,8235,6071
384,7-Eleven,7-Eleven,ChIJDXNXcxdv2jERedI6ohCx4tA,1.5879389,103.7585808,1,JOHOR,TEBRAU,PUTERI WANGSA,21.7,1712,8235,6071
386,7-Eleven,7-Eleven,ChIJhT0IK5Vv2jERBx_YcGfdCVU,1.5731337,103.7662009,1,JOHOR,TEBRAU,PUTERI WANGSA,21.7,1712,8235,6071
396,7-Eleven,7-Eleven,ChIJodUgokZv2jERCbSR_Df5rcg,1.5882637,103.7618485,1,JOHOR,TEBRAU,PUTERI WANGSA,21.7,1712,8235,6071
405,7-Eleven,7-Eleven,ChIJi97IZR1y2jER5qHUCnkSWYo,1.5523704,103.7154498,1,JOHOR,TEBRAU,PUTERI WANGSA,21.7,1712,8235,6071
406,7-Eleven,7-Eleven,ChIJh1e2URdy2jERY3hHt0KqwDA,1.5429701,103.7110709,1,JOHOR,TEBRAU,PUTERI WANGSA,21.7,1712,8235,6071
408,7-Eleven,7 Eleven,ChIJA3kpOQBt2jERXBt58NQOcr8,1.5498877,103.7839004,1,JOHOR,TEBRAU,PUTERI WANGSA,21.7,1712,8235,6071
509,MyNews,MyNews DC JB,ChIJJ0b_udNx2jERmmYtcUaMVuo,1.5823947,103.7229211,1,JOHOR,TEBRAU,PUTERI WANGSA,21.7,1712,8235,6071
510,MyNews,myNEWS @ Lotus?????? Desa Tebrau (1st Floor),ChIJLQcrvTFt2jERv7E0-cCoRCg,1.5492989,103.7936792,1,JOHOR,TEBRAU,PUTERI WANGSA,21.7,1712,8235,6071
511,MyNews,myNEWS (Maru Kafe) @ Toppen Shopping Central (2nd Floor),ChIJhz6plz9v2jERQzoLaz7EDuQ,1.553658,103.798371,1,JOHOR,TEBRAU,PUTERI WANGSA,21.7,1712,8235,6071
512,MyNews,myNEWS @ Taman Daya JB,ChIJ7_A89GZv2jERxSZ52Fp0hw4,1.5661735,103.7584605,1,JOHOR,TEBRAU,PUTERI WANGSA,21.7,1712,8235,6071
513,MyNews,myNEWS @ AEON Tebrau City (G Floor),ChIJZSpYEeNt2jERM6aNnaDJeBQ,1.549699,103.796804,1,JOHOR,TEBRAU,PUTERI WANGSA,21.7,1712,8235,6071
514,MyNews,myNEWS @ Eco Curve JB (G Floor),ChIJ0463lXFx2jER49xAKDvsjxo,1.5771182,103.7242533,1,JOHOR,TEBRAU,PUTERI WANGSA,21.7,1712,8235,6071
516,MyNews,myNEWS (Maru Kafe) @ Taman Desa Terbrau JB,ChIJKzE4KUdv2jERz1rUnDGtCGM,1.5554127,103.7899654,1,JOHOR,TEBRAU,PUTERI WANGSA,21.7,1712,8235,6071
518,MyNews,myNEWS (Maru Kafe) @ Mount Austin JB,ChIJJzk9ff1t2jERBMu64fGFg7w,1.5463409,103.7880814,1,JOHOR,TEBRAU,PUTERI WANGSA,21.7,1712,8235,6071
519,MyNews,myNEWS @ AEON Kempas (G Floor),ChIJUy7buWFv2jERzrLfR5YXTO0,1.5639165,103.7350412,1,JOHOR,TEBRAU,PUTERI WANGSA,21.7,1712,8235,6071
520,MyNews,myNEWS (Maru Kafe) @ Taman Eco Casadia JB,ChIJv0i28DJv2jERx5nJYDvm-wg,1.5828397,103.7598062,1,JOHOR,TEBRAU,PUTERI WANGSA,21.7,1712,8235,6071
521,MyNews,myNEWS (Maru Kafe) @ Setia Tropika JB,ChIJn953ogRz2jER0Gq8cmXjoRI,1.5469405,103.7163516,1,JOHOR,TEBRAU,PUTERI WANGSA,21.7,1712,8235,6071
552,CU,CU Mount Austin Johor Bahru,ChIJM5weVIRv2jERd-Ny87Pz9vM,1.560421,103.7803488,1,JOHOR,TEBRAU,PUTERI WANGSA,21.7,1712,8235,6071
553,CU,CU Taman Desa Tebrau,ChIJ9dNHMRVv2jERU-6SL4WgbUo,1.5542055,103.7955743,1,JOHOR,TEBRAU,PUTERI WANGSA,21.7,1712,8235,6071
9,99 Speedmart,99 Speedmart 2545 (JH) 1 Tebrau,ChIJZ_poGTxt2jERkaRnC6tFixY,1.5014017,103.7661519,2,JOHOR,JOHOR BAHRU,STULANG,101.3,5237,6353,5516
103,99 Speedmart,99 Speedmart 2807 (JH) Taman Sentosa 1,ChIJBSmyk45t2jERxdzdWQ36yM0,1.491283,103.768196,2,JOHOR,JOHOR BAHRU,STULANG,101.3,5237,6353,5516
108,99 Speedmart,99 Speedmart 2901 (JH) Taman Sentosa 2,ChIJOeLuzsJt2jERwToa3JKaC1s,1.4941632,103.7830739,2,JOHOR,JOHOR BAHRU,STULANG,101.3,5237,6353,5516
109,99 Speedmart,99 Speedmart 2676 (JH) Taman Pelangi 2,ChIJVYd4TFpt2jERGx3eccNmv0w,1.4826956,103.7755545,2,JOHOR,JOHOR BAHRU,STULANG,101.3,5237,6353,5516
110,99 Speedmart,99 Speedmart 2296 (JH) Taman Pelangi,ChIJa0Fxkq5t2jERXIxI1xLLI-o,1.4780451,103.7672366,2,JOHOR,JOHOR BAHRU,STULANG,101.3,5237,6353,5516
229,KK Super Mart,"KK Super Mart Johor, Taman Iskandar ( JIKD)",ChIJmx5qeFZt2jERlkU_bWw3Uww,1.4932377,103.7844501,2,JOHOR,JOHOR BAHRU,STULANG,101.3,5237,6353,5516
230,KK Super Mart,"KK SUPER MART Johor, Taman Sri Tebrau (JSRT)",ChIJ9X_bcJpt2jER0qpApQ7wOsg,1.4872491,103.768051,2,JOHOR,JOHOR BAHRU,STULANG,101.3,5237,6353,5516
231,KK Super Mart,"KK SUPER MART Johor, Taman Sentosa(JTS)",ChIJL1WwNwFt2jERiXImO7fgP60,1.4931083,103.768554,2,JOHOR,JOHOR BAHRU,STULANG,101.3,5237,6353,5516
237,KK Super Mart,"KK Concept Store Johor, Tanjung Puteri (JTJP)",ChIJUSAWyMIT2jERIVUzk358aIw,1.4587112,103.7687401,2,JOHOR,JOHOR BAHRU,STULANG,101.3,5237,6353,5516
280,Family Mart,FamilyMart Southkey,ChIJST92ovdt2jERXTicTEQMMtQ,1.501839,103.7768069,2,JOHOR,JOHOR BAHRU,STULANG,101.3,5237,6353,5516
292,Family Mart,FamilyMart Plaza Sentosa,ChIJaRKI9GZt2jERm3O6ZTtbd34,1.492217,103.7683755,2,JOHOR,JOHOR BAHRU,STULANG,101.3,5237,6353,5516
297,Family Mart,FamilyMart Jalan Serampang,ChIJh5K0I0Vt2jERRebt97mh804,1.4843408,103.7675685,2,JOHOR,JOHOR BAHRU,STULANG,101.3,5237,6353,5516
387,7-Eleven,7-Eleven,ChIJEXlDEOlt2jERjd5IXGYE0xk,1.4980024,103.7890748,2,JOHOR,JOHOR BAHRU,STULANG,101.3,5237,6353,5516
399,7-Eleven,7-Eleven,ChIJpYBBnVZt2jER_Xn3AYK-FWA,1.4787306,103.774611,2,JOHOR,JOHOR BAHRU,STULANG,101.3,5237,6353,5516
414,7-Eleven,7-Eleven,ChIJD8qs-y5t2jER5abwHsu--Jw,1.4838832,103.7671099,2,JOHOR,JOHOR BAHRU,STULANG,101.3,5237,6353,5516
425,7-Eleven,7-Eleven,ChIJ7Y4AHgBt2jERqJ1gbmqEbK4,1.4809204,103.773375,2,JOHOR,JOHOR BAHRU,STULANG,101.3,5237,6353,5516
427,7-Eleven,7-Eleven,ChIJSYalWtsS2jERR1npDrsz4T8,1.4634029,103.7645323,2,JOHOR,JOHOR BAHRU,STULANG,101.3,5237,6353,5516
428,7-Eleven,7-Eleven,ChIJSXdK9lgT2jERf5o3CtauE-k,1.4597849,103.768637,2,JOHOR,JOHOR BAHRU,STULANG,101.3,5237,6353,5516
429,7-Eleven,7-Eleven,ChIJ7a4uiSNt2jERumfyUn3CTfU,1.4916583,103.7675936,2,JOHOR,JOHOR BAHRU,STULANG,101.3,5237,6353,5516
452,7-Eleven,7-Eleven,ChIJ4RH2_SJt2jERIEUyzV3hdDQ,1.4936844,103.7661501,2,JOHOR,JOHOR BAHRU,STULANG,101.3,5237,6353,5516
455,7-Eleven,7-Eleven,ChIJTwl8XS9t2jEReR14-CpXYEk,1.4862176,103.7691562,2,JOHOR,JOHOR BAHRU,STULANG,101.3,5237,6353,5516
459,7-Eleven,7-Eleven,ChIJBxIE094S2jERvHnjlH1B8sA,1.4629294,103.7718486,2,JOHOR,JOHOR BAHRU,STULANG,101.3,5237,6353,5516
525,MyNews,MYNEWS SKS RESIDENCES,ChIJvW_v8FkT2jERYh-S4C6YQ2I,1.4707038,103.7630485,2,JOHOR,JOHOR BAHRU,STULANG,101.3,5237,6353,5516
526,MyNews,myNEWS (Maru Kafe) @ The Mall Mid Valley Southkey (1st Floor),ChIJBfJ2gi5t2jERptyyI0nmWmo,1.497856,103.778424,2,JOHOR,JOHOR BAHRU,STULANG,101.3,5237,6353,5516
530,MyNews,myNEWS @ Pangsapuri Seri Kencana Setia (G Floor),ChIJezkcEV0T2jERP3EiABUPvRc,1.471088,103.762476,2,JOHOR,JOHOR BAHRU,STULANG,101.3,5237,6353,5516
531,MyNews,myNEWS @ R&F Mall (G Floor),ChIJF6xmhKUT2jERnIcepqRVrrY,1.4592273,103.7694567,2,JOHOR,JOHOR BAHRU,STULANG,101.3,5237,6353,5516
555,CU,CU Southkey,ChIJlW_1Hwht2jERlYtfBf0xEP4,1.5013338,103.7774187,2,JOHOR,JOHOR BAHRU,STULANG,101.3,5237,6353,5516
82,99 Speedmart,99 Speedmart 2993 (JH) Taman Kempas,ChIJzRMs83dz2jERaFDuY7RPXZc,1.5364626,103.7102226,3,JOHOR,PULAI,KEMPAS,59.1,4862.8,6284,4709
84,99 Speedmart,99 Speedmart 2602 (JH) Taman Bukit Kempas,ChIJcYvknFtz2jERj7XxBivi5OY,1.5259138,103.6963687,3,JOHOR,PULAI,KEMPAS,59.1,4862.8,6284,4709
85,99 Speedmart,99 Speedmart 3541 (JH) Taman Anggerik,ChIJ-TyLDfNz2jERdyZNNTaW_CU,1.5341195,103.6886935,3,JOHOR,PULAI,KEMPAS,59.1,4862.8,6284,4709
88,99 Speedmart,99 Speedmart 2427 (JH) Taman Bukit Mewah,ChIJY0v3bklz2jERUffJZhcVACE,1.5174938,103.6889222,3,JOHOR,PULAI,KEMPAS,59.1,4862.8,6284,4709
91,99 Speedmart,99 Speedmart 3085 (JH) Taman Damansara Aliff,ChIJSz7KK5Nz2jERN5juECexDEQ,1.511061,103.718204,3,JOHOR,PULAI,KEMPAS,59.1,4862.8,6284,4709
93,99 Speedmart,99 Speedmart 2401 (JH) Taman Seroja,ChIJg-l5m0Bz2jER4VxubzC2rm8,1.5055,103.6995833,3,JOHOR,PULAI,KEMPAS,59.1,4862.8,6284,4709
94,99 Speedmart,99 Speedmart 2544 (JH) Taman Bukit Alif,ChIJs-axBzRz2jER8P_oPL8d8O8,1.5025634,103.7084525,3,JOHOR,PULAI,KEMPAS,59.1,4862.8,6284,4709
95,99 Speedmart,99 Speedmart 2986 (JH) PP Kempas,ChIJHehM3jNz2jERHcBZkmBOBOI,1.5137843,103.7011991,3,JOHOR,PULAI,KEMPAS,59.1,4862.8,6284,4709
225,KK Super Mart,"KK Super Mart Johor , Taman Bukit Alif ( JTBA )",ChIJsVT3-Kxz2jERAXcjgf096eo,1.5037389,103.7082198,3,JOHOR,PULAI,KEMPAS,59.1,4862.8,6284,4709
226,KK Super Mart,"KK Super Mart Johor, Taman Tampoi Indah ( JTTI )",ChIJ9-qP6K1z2jERXRNPq5mAphU,1.5131328,103.6831619,3,JOHOR,PULAI,KEMPAS,59.1,4862.8,6284,4709
291,Family Mart,FamilyMart Paradigm JB,ChIJqSWf7vxz2jERKOttMG3fSPU,1.5155291,103.6855381,3,JOHOR,PULAI,KEMPAS,59.1,4862.8,6284,4709
296,Family Mart,FamilyMart Angsana JB Mall,ChIJv4inUNNz2jER63p5plKbrU0,1.4954277,103.7054151,3,JOHOR,PULAI,KEMPAS,59.1,4862.8,6284,4709
343,7-Eleven,7-Eleven,ChIJEV0vdH5t2jERM08yZHoCysI,1.510479,103.7307282,3,JOHOR,PULAI,KEMPAS,59.1,4862.8,6284,4709
355,7-Eleven,7CAF??? by 7-Eleven Damansara Aliff 2 Johor (#3175),ChIJVfeyit5z2jERuarNe9pqq8o,1.5120146,103.7217552,3,JOHOR,PULAI,KEMPAS,59.1,4862.8,6284,4709
388,7-Eleven,7CAF??? by 7-Eleven Paradigm Mall Johor (#2708),ChIJ45tZ3kZz2jER-MKMRbyQGE8,1.516239,103.6851193,3,JOHOR,PULAI,KEMPAS,59.1,4862.8,6284,4709
397,7-Eleven,"7CAF??? by 7-Eleven Jalan Cengkerik, Johor (#2284)",ChIJ-Shq-uJz2jERQFiYHQWWJmg,1.5133069,103.7008886,3,JOHOR,PULAI,KEMPAS,59.1,4862.8,6284,4709
407,7-Eleven,7-Eleven,ChIJD4kGoEVy2jERUJmzjg_w7xQ,1.5271186,103.6956633,3,JOHOR,PULAI,KEMPAS,59.1,4862.8,6284,4709
410,7-Eleven,7-Eleven,ChIJ-dy-yPVy2jERfP-rulqsEew,1.5136399,103.7010606,3,JOHOR,PULAI,KEMPAS,59.1,4862.8,6284,4709
411,7-Eleven,7 eleven ???????????????????????????,ChIJNX4V4Etz2jERXFVz5Xbz4x4,1.5334001,103.6878622,3,JOHOR,PULAI,KEMPAS,59.1,4862.8,6284,4709
412,7-Eleven,7-Eleven,ChIJE6qMEd5z2jERcFLS1kt5uL8,1.5156318,103.6857437,3,JOHOR,PULAI,KEMPAS,59.1,4862.8,6284,4709
460,7-Eleven,7-Eleven,ChIJwePt1KNz2jERDkylJdUkbIA,1.5099851,103.7187407,3,JOHOR,PULAI,KEMPAS,59.1,4862.8,6284,4709
461,7-Eleven,7-Eleven,ChIJL23VgVZy2jER7JejHV_CjLA,1.5180747,103.6880049,3,JOHOR,PULAI,KEMPAS,59.1,4862.8,6284,4709
523,MyNews,myNEWS @ Paradigm Mall JB (4th Floor),ChIJYeWSCV9z2jERBAvRSrv8Pno,1.5152677,103.6865797,3,JOHOR,PULAI,KEMPAS,59.1,4862.8,6284,4709
535,MyNews,myNEWS @ Plaza Angsana JB,ChIJszUd8L9y2jERLCRpYQlpIHs,1.4949273,103.7057484,3,JOHOR,PULAI,KEMPAS,59.1,4862.8,6284,4709
557,CU,CU Bandar Baru Uda JB,ChIJG3TT1Tlz2jERAHGz9GKH9xw,1.4999093,103.7082988,3,JOHOR,PULAI,KEMPAS,59.1,4862.8,6284,4709
87,99 Speedmart,99 Speedmart 3198 (JH) Taman Impian Emas 3,ChIJl7Ie7dxz2jERZiJ8K-CfWMQ,1.5423005,103.6829399,4,JOHOR,ISKANDAR PUTERI,SKUDAI,52.3,3627.2,6699,5492
100,99 Speedmart,99 Speedmart 3040 (JH) Taman Impian Emas 2,ChIJazakA4Zx2jERXwxvEkGFPsk,1.5533116,103.6741169,4,JOHOR,ISKANDAR PUTERI,SKUDAI,52.3,3627.2,6699,5492
131,99 Speedmart,99 Speedmart 3037 (JH) Taman Skudai,ChIJ86aDOkhz2jERkFJaEzdjG2E,1.5331578,103.6631286,4,JOHOR,ISKANDAR PUTERI,SKUDAI,52.3,3627.2,6699,5492
132,99 Speedmart,99 Speedmart 2309 (JH) Taman Sri Skudai,ChIJ28GtF6Jz2jERs87TE98WgI8,1.5452813,103.6537733,4,JOHOR,ISKANDAR PUTERI,SKUDAI,52.3,3627.2,6699,5492
133,99 Speedmart,99 Speedmart 2304 (JH) Taman Impian Emas,ChIJTYg9Aetz2jERuw8JoGPKexU,1.5414764,103.6669656,4,JOHOR,ISKANDAR PUTERI,SKUDAI,52.3,3627.2,6699,5492
134,99 Speedmart,99 Speedmart 3022 (JH) Taman Desa Skudai,ChIJHcVmtkhz2jERQ0Xb9lhPLjA,1.5441572,103.6440963,4,JOHOR,ISKANDAR PUTERI,SKUDAI,52.3,3627.2,6699,5492
135,99 Speedmart,99 Speedmart 3641 (JH) Taman Seri Orkid 2,ChIJXcSTeQVz2jERiW8qrPmrGV4,1.5088882,103.6407236,4,JOHOR,ISKANDAR PUTERI,SKUDAI,52.3,3627.2,6699,5492
136,99 Speedmart,99 Speedmart 2820 (JH) Taman Ungku Tun Aminah 5,ChIJyXLxJ4Vz2jERVj8YtMG-Lbw,1.5088674,103.6520124,4,JOHOR,ISKANDAR PUTERI,SKUDAI,52.3,3627.2,6699,5492
137,99 Speedmart,99 Speedmart 2111 (JH) Taman Ungku Tun Aminah,ChIJOcYPxhFz2jERzaqP4rGnujs,1.512758,103.6558635,4,JOHOR,ISKANDAR PUTERI,SKUDAI,52.3,3627.2,6699,5492
138,99 Speedmart,99 Speedmart 2302 (JH) Taman Ungku Tun Aminah 3,ChIJo-FZNqpz2jER_gyxgQPw9EY,1.5242715,103.6661855,4,JOHOR,ISKANDAR PUTERI,SKUDAI,52.3,3627.2,6699,5492
139,99 Speedmart,99 Speedmart 2314 (JH) Taman Ungku Tun Aminah 4,ChIJEyEwMCNz2jERK9PsrXrxgbE,1.5233807,103.6639913,4,JOHOR,ISKANDAR PUTERI,SKUDAI,52.3,3627.2,6699,5492
140,99 Speedmart,99 Speedmart 3385 (JH) Taman Ungku Tun Aminah 6,ChIJP5-9RIRz2jERLY3AqRCUjdQ,1.5092038,103.6500431,4,JOHOR,ISKANDAR PUTERI,SKUDAI,52.3,3627.2,6699,5492
141,99 Speedmart,99 Speedmart 2635 (JH) Taman Mutiara Rini 2,ChIJDeI-AEJz2jERiIITRHUEru0,1.5191746,103.6410043,4,JOHOR,ISKANDAR PUTERI,SKUDAI,52.3,3627.2,6699,5492
143,99 Speedmart,99 Speedmart 2280 (JH) Taman Ungku Tun Aminah 2,ChIJqQBLxP5z2jERuhSp-eGOvyQ,1.5189567,103.659893,4,JOHOR,ISKANDAR PUTERI,SKUDAI,52.3,3627.2,6699,5492
144,99 Speedmart,99 Speedmart 2318 (JH) Taman Sri Orkid,ChIJk-J8Oh5z2jERe81m6KojB1I,1.5083043,103.6379394,4,JOHOR,ISKANDAR PUTERI,SKUDAI,52.3,3627.2,6699,5492
149,99 Speedmart,99 Speedmart 2929 (JH) Taman Jaya Mas,ChIJr0usXf5z2jERNO1KV8XyZTE,1.4909357,103.6403106,4,JOHOR,ISKANDAR PUTERI,SKUDAI,52.3,3627.2,6699,5492
151,99 Speedmart,99 Speedmart 2246 (JH) Bandar Selesa Jaya,ChIJdaqilut12jER0Xu-wXM-LOw,1.493629,103.6353714,4,JOHOR,ISKANDAR PUTERI,SKUDAI,52.3,3627.2,6699,5492
176,99 Speedmart,99 Speedmart 3479 (JH) Taman Melawati,ChIJSYg_zpR12jERfJykPydEt9U,1.4923096,103.6264145,4,JOHOR,ISKANDAR PUTERI,SKUDAI,52.3,3627.2,6699,5492
242,KK Super Mart,"KK Super Mart Johor, Skudai, Sri Skudai ( JSSS )",ChIJ9cq1UuBz2jERSdRkmpX4pKw,1.5445875,103.6545459,4,JOHOR,ISKANDAR PUTERI,SKUDAI,52.3,3627.2,6699,5492
243,KK Super Mart,"KK Super Mart Johor, Tun Aminah (2) ( JTA2 )",ChIJi2l3d2Nz2jERJrbre1O-mvY,1.5093912,103.6518669,4,JOHOR,ISKANDAR PUTERI,SKUDAI,52.3,3627.2,6699,5492
244,KK Super Mart,"KK SUPER MART Johor, Skudai, Taman Sutera Utama(JSSU)",ChIJXSPaLSFz2jERxFgihLdSios,1.5162351,103.6670577,4,JOHOR,ISKANDAR PUTERI,SKUDAI,52.3,3627.2,6699,5492
245,KK Super Mart,"KK Super Mart Johor, Tun Aminah (3) ( JTA3 )",ChIJmWOHJvxz2jERWAD_-W5YuRM,1.5117555,103.655572,4,JOHOR,ISKANDAR PUTERI,SKUDAI,52.3,3627.2,6699,5492
247,KK Super Mart,"KK SUPER MART Taman Ungku Tun Aminah, Johor (JTA)",ChIJbWp7qQNz2jER9Rgp3cRecjU,1.5216916,103.6596768,4,JOHOR,ISKANDAR PUTERI,SKUDAI,52.3,3627.2,6699,5492
259,KK Super Mart,"KK Super Mart Johor, Skudai, Taman Seri Orkid ( JSSO)",ChIJWYqNJtdz2jERd5WbI1L4644,1.5081065,103.6388387,4,JOHOR,ISKANDAR PUTERI,SKUDAI,52.3,3627.2,6699,5492
260,KK Super Mart,"KK SUPER MART Johor, Taman Mutiara Mas (JMM)",ChIJn2D_puBv2jERH3fiCRCaJuE,1.5146394,103.6319177,4,JOHOR,ISKANDAR PUTERI,SKUDAI,52.3,3627.2,6699,5492
290,Family Mart,FamilyMart Caltex Taman Impian Emas,ChIJPaHSGUpz2jER8ApzRBkLPZk,1.5457036,103.683737,4,JOHOR,ISKANDAR PUTERI,SKUDAI,52.3,3627.2,6699,5492
304,Family Mart,FamilyMart Caltex Jalan Skudai,ChIJx0nIm65z2jER6nTP44jqR0g,1.5234954,103.6782221,4,JOHOR,ISKANDAR PUTERI,SKUDAI,52.3,3627.2,6699,5492
306,Family Mart,FamilyMart Taman Ungku Tun Aminah,ChIJB0y2ojxz2jERzyauWfFraBc,1.513903,103.653765,4,JOHOR,ISKANDAR PUTERI,SKUDAI,52.3,3627.2,6699,5492
315,Family Mart,FamilyMart Mutiara Mas,ChIJL09R2sN12jERimJHbAL6jLY,1.5145819,103.6318615,4,JOHOR,ISKANDAR PUTERI,SKUDAI,52.3,3627.2,6699,5492
400,7-Eleven,7-Eleven,ChIJpcHLfqdz2jER0Yjo26WyOks,1.5157646,103.6679978,4,JOHOR,ISKANDAR PUTERI,SKUDAI,52.3,3627.2,6699,5492
403,7-Eleven,7CAF??? by 7-Eleven Impian Emas Skudai (#777),ChIJsSXFPDNy2jERlKWGweWqLnw,1.5402193,103.6841729,4,JOHOR,ISKANDAR PUTERI,SKUDAI,52.3,3627.2,6699,5492
413,7-Eleven,7-Eleven,ChIJucQmKLlz2jERiQEd7deWV1k,1.5319055,103.6658821,4,JOHOR,ISKANDAR PUTERI,SKUDAI,52.3,3627.2,6699,5492
415,7-Eleven,7-Eleven,ChIJAQS2OCUX2jERtKzplsMXJ34,1.5386964,103.6610447,4,JOHOR,ISKANDAR PUTERI,SKUDAI,52.3,3627.2,6699,5492
419,7-Eleven,7-Eleven,ChIJ5ftA2nVz2jER9FmYCH22nxs,1.5139459,103.6541455,4,JOHOR,ISKANDAR PUTERI,SKUDAI,52.3,3627.2,6699,5492
421,7-Eleven,7-Eleven,ChIJUYJxaXFz2jERgKnmQOe7ZdY,1.5092654,103.6526306,4,JOHOR,ISKANDAR PUTERI,SKUDAI,52.3,3627.2,6699,5492
431,7-Eleven,7-Eleven,ChIJCZG12sVz2jERvwK0lNINW1c,1.5394888,103.6687846,4,JOHOR,ISKANDAR PUTERI,SKUDAI,52.3,3627.2,6699,5492
432,7-Eleven,7-Eleven,ChIJ9YXdK8cS2jERhfjj1JpPXKc,1.5098186,103.641612,4,JOHOR,ISKANDAR PUTERI,SKUDAI,52.3,3627.2,6699,5492
433,7-Eleven,7-Eleven,ChIJExqGIqJz2jERUv2qB-ZYxP0,1.5200826,103.6608094,4,JOHOR,ISKANDAR PUTERI,SKUDAI,52.3,3627.2,6699,5492
435,7-Eleven,7-Eleven,ChIJ78l_s15z2jERWYl--lhnAJo,1.4902786,103.6401075,4,JOHOR,ISKANDAR PUTERI,SKUDAI,52.3,3627.2,6699,5492
493,7-Eleven,7-Eleven,ChIJJSGAGH1z2jERXAqiqiHeeHM,1.5073628,103.6386337,4,JOHOR,ISKANDAR PUTERI,SKUDAI,52.3,3627.2,6699,5492
496,7-Eleven,7-Eleven,ChIJu9DokYB02jER8L3lH2yUIR8,1.5147982,103.6326713,4,JOHOR,ISKANDAR PUTERI,SKUDAI,52.3,3627.2,6699,5492
522,MyNews,"SUPERVALUE @ Taman Impian Emas, Johor",ChIJdffiqi1z2jER3c6A2lt6gy0,1.5423175,103.682087,4,JOHOR,ISKANDAR PUTERI,SKUDAI,52.3,3627.2,6699,5492
534,MyNews,myNEWS (Maru Kafe) @ Taman Sutera Utama Skudai,ChIJj_e48nBz2jERNNEbcDYZN9U,1.516144,103.6679967,4,JOHOR,ISKANDAR PUTERI,SKUDAI,52.3,3627.2,6699,5492
561,CU,CU,ChIJ3RtCwoFz2jERX4SnAl0xEjM,1.5151311,103.6697913,4,JOHOR,ISKANDAR PUTERI,SKUDAI,52.3,3627.2,6699,5492
563,CU,CU Mutiara Mas Skudai,ChIJ5epWz2J12jERWluzGRaQbK0,1.5138452,103.6317121,4,JOHOR,ISKANDAR PUTERI,SKUDAI,52.3,3627.2,6699,5492
6,99 Speedmart,99 Speedmart 2288 (JH) Taman Desa Jaya,ChIJmRLx1m9v2jERNq-3-qGiKbw,1.5553946,103.8043569,5,JOHOR,TEBRAU,TIRAM,9.2,592,5646,3972
26,99 Speedmart,99 Speedmart 2536 (JH) Taman Gaya,ChIJ_2_yqBFv2jER3x7W5OC61YM,1.5635136,103.8008101,5,JOHOR,TEBRAU,TIRAM,9.2,592,5646,3972
32,99 Speedmart,99 Speedmart 2771 (JH) Taman Desa Cemerlang 2,ChIJUcVShTZv2jER3urqbSohpBo,1.5662359,103.8131805,5,JOHOR,TEBRAU,TIRAM,9.2,592,5646,3972
48,99 Speedmart,99 Speedmart 2201 (JH) Taman Ehsan Jaya,ChIJRdl1XoBt2jERWtW-nl67cDc,1.5468419,103.8133581,5,JOHOR,TEBRAU,TIRAM,9.2,592,5646,3972
50,99 Speedmart,99 Speedmart 3480 (JH) Taman Desa Cemerlang 3,ChIJ_RjRNs5v2jERKIhrxX0atoQ,1.5615234,103.8087931,5,JOHOR,TEBRAU,TIRAM,9.2,592,5646,3972
57,99 Speedmart,99 Speedmart 2326 (JH) Taman Desa Cemerlang 1,ChIJRbSMwpZv2jERla3hF9UIVa4,1.552997,103.8178105,5,JOHOR,TEBRAU,TIRAM,9.2,592,5646,3972
61,99 Speedmart,99 Speedmart 2646 (JH) Taman Nora,ChIJQ2uOTZ5v2jERAQy7bXxJUKI,1.5875006,103.8190581,5,JOHOR,TEBRAU,TIRAM,9.2,592,5646,3972
68,99 Speedmart,99 Speedmart 3343 (JH) Taman Tiram Baru,ChIJbz-DZkVp2jERcf4VRKe4-9g,1.5993225,103.822602,5,JOHOR,TEBRAU,TIRAM,9.2,592,5646,3972
73,99 Speedmart,99 Speedmart 3603 JH Taman Bukit Tiram,ChIJv2NUDVtv2jER_e783m2UfqM,1.6101419,103.8104727,5,JOHOR,TEBRAU,TIRAM,9.2,592,5646,3972
74,99 Speedmart,99 Speedmart 2319 (JH) Bandar Tiram,ChIJTRWzHwxp2jERhAAX8vcG118,1.6145278,103.823,5,JOHOR,TEBRAU,TIRAM,9.2,592,5646,3972
75,99 Speedmart,99 Speedmart 2726 (JH) Bandar Cemerlang,ChIJ-690PZJv2jEROZfviptG-sU,1.622756,103.8148422,5,JOHOR,TEBRAU,TIRAM,9.2,592,5646,3972
122,99 Speedmart,99 Speedmart 3528 (JH) Taman Kota Masai 4,ChIJg-0tcxdB2jEREDWOh93uOfY,1.4901508,103.9527774,5,JOHOR,TEBRAU,TIRAM,9.2,592,5646,3972
124,99 Speedmart,99 Speedmart 2313 (JH) Kwsn Perindustrian Iskandar Halal Park,ChIJbRJYSj5B2jEROmbG1jjdUZo,1.5234962,103.9253183,5,JOHOR,TEBRAU,TIRAM,9.2,592,5646,3972
125,99 Speedmart,99 Speedmart 2745 (JH) Taman Tanjung Puteri Resort,ChIJq4KjMmM_2jERHJVo2JXH2do,1.4552382,103.9359817,5,JOHOR,TEBRAU,TIRAM,9.2,592,5646,3972
127,99 Speedmart,99 Speedmart 2285 (JH) Taman Cahaya Masai,ChIJs2mmaFdB2jERDSkHV7hkL9A,1.5072792,103.9225347,5,JOHOR,TEBRAU,TIRAM,9.2,592,5646,3972
194,99 Speedmart,99 Speedmart 2570 (JH) Taman Kota Masai 3,ChIJE7vpCC1B2jERR1jmAdwIadA,1.4932242,103.9278038,5,JOHOR,TEBRAU,TIRAM,9.2,592,5646,3972
195,99 Speedmart,99 Speedmart 2177 (JH) Taman Pasir Putih,ChIJTYGjJoo_2jERVQdI9YZKnPY,1.4735429,103.9318762,5,JOHOR,TEBRAU,TIRAM,9.2,592,5646,3972
196,99 Speedmart,99 Speedmart 2915 (JH) Bandar Bistari Perdana,ChIJQ0yvbb5B2jERCOJZ-awEOkU,1.521353,103.9473441,5,JOHOR,TEBRAU,TIRAM,9.2,592,5646,3972
197,99 Speedmart,99 Speedmart 2209 (JH) Taman Kota Masai 2,ChIJQaXswaRB2jERg00K4agfhhI,1.4831747,103.953506,5,JOHOR,TEBRAU,TIRAM,9.2,592,5646,3972
198,99 Speedmart,99 Speedmart 2153 (JH) Taman Kota Masai,ChIJFwHVv3FA2jERHvU8IW-fr3k,1.4840994,103.944834,5,JOHOR,TEBRAU,TIRAM,9.2,592,5646,3972
207,99 Speedmart,99 Speedmart 2436 (JH) Taman Pasir Emas,ChIJce1xGLY_2jERdr2fT17c_0E,1.4412045,103.9318422,5,JOHOR,TEBRAU,TIRAM,9.2,592,5646,3972
209,KK Super Mart,"KK Super Mart Johor, Taman Ehsan Jaya ( JTEJ)",ChIJQew_aaBt2jERUBc53YFz4z4,1.5477409,103.8127014,5,JOHOR,TEBRAU,TIRAM,9.2,592,5646,3972
221,KK Super Mart,"KK Super Mart Johor, Ulu Tiram, Desa Cemerlang (JUTC)",ChIJx1FcWa5v2jERUMG9htAUXGI,1.5620354,103.8078742,5,JOHOR,TEBRAU,TIRAM,9.2,592,5646,3972
223,KK Super Mart,"KK Super Mart Johor, Ulu Tiram, Bukit Tiram ( JUTT)",ChIJ6edU01Fv2jERsDMlPDXiaek,1.6025282,103.8123812,5,JOHOR,TEBRAU,TIRAM,9.2,592,5646,3972
224,KK Super Mart,KK SUPER MART Johor Ulu Tiram (JUTR),ChIJ2c7zvxhp2jERGF8PoHjkYz8,1.5979967,103.8229309,5,JOHOR,TEBRAU,TIRAM,9.2,592,5646,3972
269,KK Super Mart,"KK Super Mart Johor, Pasir Gudang, Taman Kota Masai ( JPKM )",ChIJuXq2SCVB2jER3Gue8q1CbPA,1.4840286,103.946021,5,JOHOR,TEBRAU,TIRAM,9.2,592,5646,3972
270,KK Super Mart,"KK Super Mart Johor, Pasir Gudang, Kampung Pasir Putih ( JPPP )",ChIJZ5LoZos_2jERbnflqjoLI1k,1.4429087,103.9322371,5,JOHOR,TEBRAU,TIRAM,9.2,592,5646,3972
287,7-Eleven,7CAF??? by 7-Eleven Taman Bukit Tiram (#1453),ChIJVeuT5TBv2jER-iv0OLb-I78,1.6024605,103.812626,5,JOHOR,TEBRAU,TIRAM,9.2,592,5646,3972
312,Family Mart,FamilyMart Petron Taman Cahaya Masai,ChIJLRtme3ZB2jERu_4_maImRqs,1.5096203,103.9228823,5,JOHOR,TEBRAU,TIRAM,9.2,592,5646,3972
327,Family Mart,FamilyMart Kota Masai,ChIJ37fz_ipB2jERniwaiKL1QqE,1.4854138,103.9369429,5,JOHOR,TEBRAU,TIRAM,9.2,592,5646,3972
328,Family Mart,FamilyMart Petron Kota Masai,ChIJCdfYzYZB2jER4nWBQr7D64o,1.4848588,103.949947,5,JOHOR,TEBRAU,TIRAM,9.2,592,5646,3972
331,7-Eleven,7-Eleven,ChIJJ_FhiANs2jERFSdBGpJx0U0,1.5476329,103.8137397,5,JOHOR,TEBRAU,TIRAM,9.2,592,5646,3972
338,7-Eleven,7-Eleven,ChIJnz6Vfa9u2jER1aJCe_qjsos,1.5589067,103.8101175,5,JOHOR,TEBRAU,TIRAM,9.2,592,5646,3972
361,7-Eleven,7-Eleven,ChIJZYTo8Rlv2jER0omxdh7mgDk,1.598635,103.793325,5,JOHOR,TEBRAU,TIRAM,9.2,592,5646,3972
366,7-Eleven,7-Eleven,ChIJEf9ESQBp2jERdLY_XO_o_0M,1.5991844,103.8233357,5,JOHOR,TEBRAU,TIRAM,9.2,592,5646,3972
379,7-Eleven,7- Eleven,ChIJSZfiAr1u2jERJJAg6vRp5ks,1.5631988,103.8007657,5,JOHOR,TEBRAU,TIRAM,9.2,592,5646,3972
382,7-Eleven,7-Eleven,ChIJ21tpy7Zu2jERQdEWdpRt0rE,1.5663842,103.814286,5,JOHOR,TEBRAU,TIRAM,9.2,592,5646,3972
466,7-Eleven,7-Eleven,ChIJDZYP921p2jERMVpJaZ7SO4o,1.6130862,103.8217681,5,JOHOR,TEBRAU,TIRAM,9.2,592,5646,3972
489,7-Eleven,7-Eleven,ChIJL39oMBdA2jERPmlPovXpfTs,1.490864,103.927966,5,JOHOR,TEBRAU,TIRAM,9.2,592,5646,3972
499,7-Eleven,7-Eleven,ChIJvbKtq5I_2jER4581_wZPbt8,1.4432638,103.932216,5,JOHOR,TEBRAU,TIRAM,9.2,592,5646,3972
500,7-Eleven,7CAF??? by 7-Eleven Jalan Ekoperniagaan 9 (#3121),ChIJfxXSgNZB2jERKu19kFdhvL4,1.485694,103.9378758,5,JOHOR,TEBRAU,TIRAM,9.2,592,5646,3972
501,7-Eleven,7-Eleven,ChIJr3k0S3BA2jER9pItluXgebg,1.4841132,103.946334,5,JOHOR,TEBRAU,TIRAM,9.2,592,5646,3972
502,7-Eleven,7 Eleven Jalan Rambai 11,ChIJuec8Vm9B2jER6ZMJNi9_4V4,1.4848149,103.9488324,5,JOHOR,TEBRAU,TIRAM,9.2,592,5646,3972
503,7-Eleven,7 Eleven,ChIJcYl_EXtA2jERmWYLEZ96mjY,1.4837989,103.9531867,5,JOHOR,TEBRAU,TIRAM,9.2,592,5646,3972
556,CU,CU,ChIJfWnlBaFv2jERKEMEh5msWwQ,1.5611935,103.8089787,5,JOHOR,TEBRAU,TIRAM,9.2,592,5646,3972
566,CU,CU Kota Masai,ChIJAdnfO35B2jER9HKV7zfmBwA,1.4847329,103.9375407,5,JOHOR,TEBRAU,TIRAM,9.2,592,5646,3972
45,99 Speedmart,99 Speedmart 2576 (JH) Bandar Baru Permas Jaya 4,ChIJhSjvpNlt2jER0SgKNbaxviQ,1.5122329,103.818485,6,JOHOR,PASIR GUDANG,PERMAS,92.8,2885.4,6528,4415
46,99 Speedmart,99 Speedmart 2612 (JH) Bandar Baru Permas Jaya 5,ChIJr7EHwvBt2jERPaIPYWU5IHM,1.4973519,103.8121287,6,JOHOR,PASIR GUDANG,PERMAS,92.8,2885.4,6528,4415
58,99 Speedmart,99 Speedmart 2535 (JH) Bandar Baru Permas Jaya 3,ChIJ9SQG3BBv2jERcVb77-b8K3M,1.5046481,103.820883,6,JOHOR,PASIR GUDANG,PERMAS,92.8,2885.4,6528,4415
59,99 Speedmart,99 Speedmart 3256 (JH) Bandar Baru Kota Puteri,ChIJg1g0jlFr2jERY51D4P_y_uc,1.4999635,103.8503317,6,JOHOR,PASIR GUDANG,PERMAS,92.8,2885.4,6528,4415
60,99 Speedmart,99 Speedmart 2284 (JH) Permas 1,ChIJ29VbnC1t2jERqC9liuYVFII,1.499223,103.8196159,6,JOHOR,PASIR GUDANG,PERMAS,92.8,2885.4,6528,4415
62,KK Super Mart,"KK Super Mart Johor, Permas Jaya (JPJY)",ChIJmdrpG21t2jER3p6Xy3PoGfQ,1.4968691,103.815491,6,JOHOR,PASIR GUDANG,PERMAS,92.8,2885.4,6528,4415
64,99 Speedmart,7CAF??? by 7-Eleven Rinting Masai (#153),ChIJm-nw3dhq2jERaaJVMy09kEo,1.4895432,103.8704213,6,JOHOR,PASIR GUDANG,PERMAS,92.8,2885.4,6528,4415
65,99 Speedmart,99 Speedmart 3397 (JH) Taman Cahaya Kota Puteri 2,ChIJBTDj-jVr2jERpW-6b130EiA,1.4933568,103.8427096,6,JOHOR,PASIR GUDANG,PERMAS,92.8,2885.4,6528,4415
70,99 Speedmart,99 Speedmart 2253 (JH) Taman Cahaya Kota Puteri,ChIJObQ33SVr2jERRtV3S0BTcIM,1.4917918,103.8431772,6,JOHOR,PASIR GUDANG,PERMAS,92.8,2885.4,6528,4415
72,99 Speedmart,99 Speedmart 2327 (JH) Bandar Baru Permas Jaya 2,ChIJ-WH06xJt2jERUOvEF-jBN5o,1.4896712,103.8183992,6,JOHOR,PASIR GUDANG,PERMAS,92.8,2885.4,6528,4415
78,99 Speedmart,99 Speedmart 2954 (JH) Kampung Baru Masai,ChIJA3gXsINr2jER-Usw6irTKB4,1.4861352,103.8825144,6,JOHOR,PASIR GUDANG,PERMAS,92.8,2885.4,6528,4415
118,99 Speedmart,99 Speedmart 3190 (JH) Taman Rinting 2,ChIJRc5FiZZr2jER46MgvTpjSmo,1.4869837,103.8673962,6,JOHOR,PASIR GUDANG,PERMAS,92.8,2885.4,6528,4415
119,99 Speedmart,99 Speedmart 2208 (JH) Bandar Seri Alam 2,ChIJY_J6d81r2jERccq39WA-aIU,1.49444,103.8809482,6,JOHOR,PASIR GUDANG,PERMAS,92.8,2885.4,6528,4415
120,99 Speedmart,99 Speedmart 3015 (JH) Taman Megah Ria 2,ChIJGy_yAktr2jERs9OSFjOJQXM,1.4914485,103.8498659,6,JOHOR,PASIR GUDANG,PERMAS,92.8,2885.4,6528,4415
121,99 Speedmart,99 Speedmart 2529 (JH) Taman Rinting,ChIJjcN9GUpr2jERNGP6T8fgsvI,1.4865419,103.8746023,6,JOHOR,PASIR GUDANG,PERMAS,92.8,2885.4,6528,4415
123,99 Speedmart,99 Speedmart 2266 (JH) Taman Megah Ria 1,ChIJVXKMwH1r2jEROissvFOOnWc,1.4901813,103.8604377,6,JOHOR,PASIR GUDANG,PERMAS,92.8,2885.4,6528,4415
126,99 Speedmart,99 Speedmart 2131 (JH) Taman Bukit Dahlia,ChIJq2D8aDdr2jER3hH2R_DazRA,1.4829994,103.899613,6,JOHOR,PASIR GUDANG,PERMAS,92.8,2885.4,6528,4415
161,99 Speedmart,99 Speedmart 3013 (JH) Taman Sierra Perdana 2,ChIJfXyXPIkV2jERrsv7A7OBs8U,1.4739423,103.8681072,6,JOHOR,PASIR GUDANG,PERMAS,92.8,2885.4,6528,4415
162,99 Speedmart,99 Speedmart 2176 (JH) Taman Sierra Perdana,ChIJX4mx8xxr2jERZPhp8Lzo-WM,1.4804444,103.8691389,6,JOHOR,PASIR GUDANG,PERMAS,92.8,2885.4,6528,4415
163,99 Speedmart,99 Speedmart 2243 (JH) Taman Mawar,ChIJ2QIzEA0V2jERX12r7K4pUMw,1.4730458,103.8968088,6,JOHOR,PASIR GUDANG,PERMAS,92.8,2885.4,6528,4415
164,99 Speedmart,99 Speedmart 2348 (JH) Taman Scientex Pasir Gudang 1,ChIJexJfuNBB2jERaaY4DW0KMTE,1.51275,103.9152222,6,JOHOR,PASIR GUDANG,PERMAS,92.8,2885.4,6528,4415
165,99 Speedmart,99 Speedmart 2383 (JH) Taman Scientex Pasir Gudang 2,ChIJlTRSYcxB2jERqyofpfEgmnk,1.5022112,103.9153031,6,JOHOR,PASIR GUDANG,PERMAS,92.8,2885.4,6528,4415
192,99 Speedmart,99 Speedmart 3113 (JH) Taman Air Biru,ChIJvSWjSUIV2jERFKZfcq2Xz1o,1.4584984,103.9126549,6,JOHOR,PASIR GUDANG,PERMAS,92.8,2885.4,6528,4415
193,99 Speedmart,99 Speedmart 2159 (JH) Taman Cendana,ChIJTQXGyRFr2jERuoVzhEYyofU,1.4881944,103.9094722,6,JOHOR,PASIR GUDANG,PERMAS,92.8,2885.4,6528,4415
240,KK Super Mart,"KK Super Mart Johor Taman, Taman Cahaya Kota Puteri (JCKP )",ChIJmSdjgHBr2jERPG6TAAG4Wxk,1.4928657,103.8425751,6,JOHOR,PASIR GUDANG,PERMAS,92.8,2885.4,6528,4415
253,KK Super Mart,"KK Super Mart Johor, Masai, Sierra Perdana ( JMSP)",ChIJF4sGgZhr2jER-YGD7OUPxnA,1.48064,103.8689543,6,JOHOR,PASIR GUDANG,PERMAS,92.8,2885.4,6528,4415
254,KK Super Mart,"KK Super Mart Johor, Masai, Megah Ria (JMMR)",ChIJN5O0ZVdr2jERbHKG7In4Yp0,1.490711,103.8489216,6,JOHOR,PASIR GUDANG,PERMAS,92.8,2885.4,6528,4415
261,KK Super Mart,"KK SUPER MART Johor, Pasir Gudang (JPG)",ChIJpfG7bjBr2jER0HDQLnKHKk8,1.4785298,103.8951461,6,JOHOR,PASIR GUDANG,PERMAS,92.8,2885.4,6528,4415
302,Family Mart,FamilyMart Permas,ChIJp5qDufJt2jERyBAr4EOe8eI,1.4961556,103.8146795,6,JOHOR,PASIR GUDANG,PERMAS,92.8,2885.4,6528,4415
319,Family Mart,FamilyMart Bukit Dahlia,ChIJDaDhrV5r2jEReVZws40r1G0,1.4780715,103.896195,6,JOHOR,PASIR GUDANG,PERMAS,92.8,2885.4,6528,4415
354,7-Eleven,7CAF??? by 7-Eleven Bandar Baru Permas (#154),ChIJOb33tZhs2jER0Ab6RoWWVB0,1.4969678,103.8154996,6,JOHOR,PASIR GUDANG,PERMAS,92.8,2885.4,6528,4415
376,7-Eleven,7-Eleven,ChIJFQutF5xs2jERLSBGpVLD640,1.5007272,103.8160611,6,JOHOR,PASIR GUDANG,PERMAS,92.8,2885.4,6528,4415
390,7-Eleven,7-Eleven,ChIJC3JuvtVq2jER2LlwF3S83Qo,1.4798251,103.8697099,6,JOHOR,PASIR GUDANG,PERMAS,92.8,2885.4,6528,4415
391,7-Eleven,7CAF??? by 7-Eleven Taman Cahaya Kota Puteri (#2282),ChIJAZnsx5pr2jERGomE2NOiCDU,1.4897019,103.840813,6,JOHOR,PASIR GUDANG,PERMAS,92.8,2885.4,6528,4415
393,7-Eleven,7-Eleven,ChIJ59_AvSpA2jERro-b4CEV2Ao,1.512773,103.915407,6,JOHOR,PASIR GUDANG,PERMAS,92.8,2885.4,6528,4415
394,7-Eleven,7-Eleven,ChIJm7dEXTlr2jERCU7qS_pgI_A,1.489517,103.8497429,6,JOHOR,PASIR GUDANG,PERMAS,92.8,2885.4,6528,4415
395,7-Eleven,7CAF??? by 7-Eleven Taman Cahaya Kota Puteri (#3122),ChIJH2Q_TiNr2jER83npWI6nAHo,1.49267,103.8424579,6,JOHOR,PASIR GUDANG,PERMAS,92.8,2885.4,6528,4415
398,7-Eleven,7CAF??? by 7-Eleven Telok Senibong (#2211),ChIJe__nD1tr2jERcUZLKxRFGxU,1.489155,103.8309598,6,JOHOR,PASIR GUDANG,PERMAS,92.8,2885.4,6528,4415
430,7-Eleven,7-Eleven,ChIJ4bcR7mJt2jERbJF3aHfZnDg,1.4981442,103.8122485,6,JOHOR,PASIR GUDANG,PERMAS,92.8,2885.4,6528,4415
462,7-Eleven,7-Eleven,ChIJP-ZKc8Vq2jERDS4bjP546do,1.4869198,103.8821895,6,JOHOR,PASIR GUDANG,PERMAS,92.8,2885.4,6528,4415
463,7-Eleven,7-Eleven,ChIJ-9PmCOhq2jERG6w2uiZ_C0w,1.4960407,103.8799296,6,JOHOR,PASIR GUDANG,PERMAS,92.8,2885.4,6528,4415
464,7-Eleven,7-Eleven,ChIJmezii8FB2jERaNHWtXEIhLc,1.500454,103.9153779,6,JOHOR,PASIR GUDANG,PERMAS,92.8,2885.4,6528,4415
482,7-Eleven,7-Eleven,ChIJ81eZDUwV2jERuhVQCeUUiKw,1.472669,103.897656,6,JOHOR,PASIR GUDANG,PERMAS,92.8,2885.4,6528,4415
483,7-Eleven,7-Eleven,ChIJbXJbU7Rq2jERcUJshviasCo,1.4790066,103.8941562,6,JOHOR,PASIR GUDANG,PERMAS,92.8,2885.4,6528,4415
484,7-Eleven,7-Eleven,ChIJl_WwN7Bq2jER_dwQmC1xx6Q,1.4838593,103.9014733,6,JOHOR,PASIR GUDANG,PERMAS,92.8,2885.4,6528,4415
485,7-Eleven,7-Eleven,ChIJtdI7UJ1s2jERlIIVzaGXNm4,1.50458,103.820967,6,JOHOR,PASIR GUDANG,PERMAS,92.8,2885.4,6528,4415
486,7-Eleven,7-Eleven,ChIJ83pyUshq2jERnOZLAjDieI8,1.4834258,103.8892806,6,JOHOR,PASIR GUDANG,PERMAS,92.8,2885.4,6528,4415
487,7-Eleven,7-Eleven,ChIJI9dExF8V2jERFvpUb9ou76k,1.4581765,103.9136849,6,JOHOR,PASIR GUDANG,PERMAS,92.8,2885.4,6528,4415
488,7-Eleven,7 Eleven @ Jalan Cendana (#2214),ChIJ6cdSHABr2jEREIBtGU_MG9E,1.4882246,103.9099199,6,JOHOR,PASIR GUDANG,PERMAS,92.8,2885.4,6528,4415
490,7-Eleven,7CAF??? by 7-Eleven Taman Kota Masai (#3096),ChIJtd36IwBB2jERLSzT85CYgWE,1.4907444,103.9178912,6,JOHOR,PASIR GUDANG,PERMAS,92.8,2885.4,6528,4415
543,MyNews,myNEWS (Maru Kafe) @ KPJ Pasir Gudang,ChIJ96mW_8hr2jERMSEntkIXwiY,1.4769024,103.8958595,6,JOHOR,PASIR GUDANG,PERMAS,92.8,2885.4,6528,4415
560,CU,CU Permas Jaya,ChIJ-RrNPH1t2jERI-WtknTbjZo,1.4965159,103.8151972,6,JOHOR,PASIR GUDANG,PERMAS,92.8,2885.4,6528,4415
564,CU,CU Bukit Dahlia,ChIJs7QJqFNr2jERUYhFXzD4BEo,1.478562,103.8938711,6,JOHOR,PASIR GUDANG,PERMAS,92.8,2885.4,6528,4415
14,99 Speedmart,99 Speedmart 2789 (JH) Kampung Melayu Majidee,ChIJ0yUKcaRt2jER4pyJ9nGsvNg,1.5094736,103.7493975,7,JOHOR,JOHOR BAHRU,LARKIN,77.3,4963.4,6886,5782
27,99 Speedmart,99 Speedmart 3141 (JH) Taman Sri Bahagia,ChIJ_ZSwmEdt2jER_DLkEj79_34,1.5102642,103.7301603,7,JOHOR,JOHOR BAHRU,LARKIN,77.3,4963.4,6886,5782
36,99 Speedmart,99 Speedmart 2379 (JH) Taman Larkin Perdana,ChIJ8V8Hwvpt2jERlUKO4hbrUl0,1.5012916,103.7477596,7,JOHOR,JOHOR BAHRU,LARKIN,77.3,4963.4,6886,5782
96,99 Speedmart,99 Speedmart 3564 (JH) Larkin Indah,ChIJH3JgHY9t2jERfUoCuzfFMXk,1.4968545,103.7370942,7,JOHOR,JOHOR BAHRU,LARKIN,77.3,4963.4,6886,5782
98,99 Speedmart,99 Speedmart 3576 (JH) Bandar Baru Uda,ChIJLSg_DVJz2jERLKuDXgVzj_4,1.4905769,103.7116349,7,JOHOR,JOHOR BAHRU,LARKIN,77.3,4963.4,6886,5782
101,99 Speedmart,99 Speedmart 2511 (JH) Larkin Idaman,ChIJ0-ToLBxt2jERO3MzdxfS1Pk,1.4942662,103.7536631,7,JOHOR,JOHOR BAHRU,LARKIN,77.3,4963.4,6886,5782
106,99 Speedmart,99 Speedmart 2476 (JH) Taman Suria Muafakat,ChIJMRTZ1Ttz2jERMsuucXV5RnY,1.4872725,103.7239705,7,JOHOR,JOHOR BAHRU,LARKIN,77.3,4963.4,6886,5782
111,99 Speedmart,99 Speedmart 2571 (JH) Taman Abad,ChIJx1Zaf_ht2jERjIiPqBquXc8,1.4872045,103.7608123,7,JOHOR,JOHOR BAHRU,LARKIN,77.3,4963.4,6886,5782
112,99 Speedmart,99 Speedmart 2601 (JH) Taman Melodies,ChIJmU6mrW1t2jER_qwFqfilUr8,1.4908112,103.7629105,7,JOHOR,JOHOR BAHRU,LARKIN,77.3,4963.4,6886,5782
114,99 Speedmart,99 Speedmart 2187 (JH) Taman Dato Onn,ChIJu85BV09t2jER8CeKmQbTxvc,1.486253,103.7515913,7,JOHOR,JOHOR BAHRU,LARKIN,77.3,4963.4,6886,5782
227,KK Super Mart,"KK SUPER MART Johor, Bandar Baru Uda (JBU)",ChIJDddgQA5z2jERGm3ZIYB3Elw,1.4995093,103.7176826,7,JOHOR,JOHOR BAHRU,LARKIN,77.3,4963.4,6886,5782
232,KK Super Mart,"KK Super Mart Johor, Taman Century (JCTR)",ChIJuZBYJRRt2jERmURknrTzDBI,1.4859617,103.7615156,7,JOHOR,JOHOR BAHRU,LARKIN,77.3,4963.4,6886,5782
233,KK Super Mart,"KK SUPER MART Johor, Larkin Jaya (JLKJ)",ChIJUQk78mdt2jER1xok7MGV_pY,1.4970329,103.7419357,7,JOHOR,JOHOR BAHRU,LARKIN,77.3,4963.4,6886,5782
234,KK Super Mart,"KK SUPER MART Johor, Taman Abad (JAB)",ChIJD-54XOFt2jER2oY8yZo_wmQ,1.481063,103.7642115,7,JOHOR,JOHOR BAHRU,LARKIN,77.3,4963.4,6886,5782
235,KK Super Mart,"KK Super Mart Johor, Taman Larkin Idaman ( JTLI )",ChIJg-Bj42Nt2jER3CocHfEfh-A,1.4949396,103.7537865,7,JOHOR,JOHOR BAHRU,LARKIN,77.3,4963.4,6886,5782
236,KK Super Mart,"KK Super Mart Johor, Kebun Teh (JKBT)",ChIJH-R2YyFt2jERMMnsz77MS9s,1.4860929,103.7542634,7,JOHOR,JOHOR BAHRU,LARKIN,77.3,4963.4,6886,5782
289,Family Mart,FamilyMart Bandar Baru Uda,ChIJlajVKe9z2jERKJluIvmd8Z0,1.4998639,103.7178253,7,JOHOR,JOHOR BAHRU,LARKIN,77.3,4963.4,6886,5782
295,Family Mart,FamilyMart Larkin Town Centre,ChIJPXQ6V4xt2jERKCcxH0BQCXE,1.4957873,103.7411478,7,JOHOR,JOHOR BAHRU,LARKIN,77.3,4963.4,6886,5782
298,Family Mart,FamilyMart Kebun Teh,ChIJy2DzDLlt2jER_2Vni7NPWZM,1.4859808,103.7542023,7,JOHOR,JOHOR BAHRU,LARKIN,77.3,4963.4,6886,5782
300,Family Mart,FamilyMart KSL City,ChIJtTljt9Zt2jERnIuf2Gm1UEI,1.4859251,103.7619976,7,JOHOR,JOHOR BAHRU,LARKIN,77.3,4963.4,6886,5782
310,Family Mart,CU Larkin Jaya,ChIJr9op2Qpt2jER63RwQ-Gqaps,1.4955136,103.741247,7,JOHOR,JOHOR BAHRU,LARKIN,77.3,4963.4,6886,5782
335,7-Eleven,7-Eleven,ChIJpwHG-2tt2jERBK0ZfH2KD4k,1.5004691,103.7467776,7,JOHOR,JOHOR BAHRU,LARKIN,77.3,4963.4,6886,5782
346,7-Eleven,7CAF??? by 7-Eleven Jalan Suria Taman Putra (#2006),ChIJ_80a0RFt2jERbp6t-0ydYRY,1.5049595,103.760292,7,JOHOR,JOHOR BAHRU,LARKIN,77.3,4963.4,6886,5782
353,7-Eleven,7-Eleven,ChIJH24lf2xt2jERaaA26hAOy84,1.5008491,103.7487933,7,JOHOR,JOHOR BAHRU,LARKIN,77.3,4963.4,6886,5782
358,7-Eleven,7-Eleven,ChIJw0Qi5Wdt2jERx7bGBitZh9k,1.4968745,103.7399323,7,JOHOR,JOHOR BAHRU,LARKIN,77.3,4963.4,6886,5782
363,7-Eleven,7CAF??? by 7-Eleven Taman Larkin Idaman (#1876),ChIJq9oqvj9t2jERDS3I2DWjF4I,1.4947764,103.7534911,7,JOHOR,JOHOR BAHRU,LARKIN,77.3,4963.4,6886,5782
380,7-Eleven,7-Eleven,ChIJG4JjPmht2jERTyV-aMEc66M,1.4970766,103.7421634,7,JOHOR,JOHOR BAHRU,LARKIN,77.3,4963.4,6886,5782
418,7-Eleven,7-Eleven,ChIJG5sqNJRy2jER2Lj2dRrzCfA,1.4990032,103.7102723,7,JOHOR,JOHOR BAHRU,LARKIN,77.3,4963.4,6886,5782
451,7-Eleven,7-Eleven,ChIJyaGHA6Zy2jERJ4RILaMjDUA,1.4871832,103.7236293,7,JOHOR,JOHOR BAHRU,LARKIN,77.3,4963.4,6886,5782
454,7-Eleven,7-Eleven,ChIJIV2Ldzpt2jERe52pK3ahmCU,1.4867137,103.7600592,7,JOHOR,JOHOR BAHRU,LARKIN,77.3,4963.4,6886,5782
456,7-Eleven,7-Eleven,ChIJBeyxNDht2jERHKADV3uFoyw,1.4874208,103.7548326,7,JOHOR,JOHOR BAHRU,LARKIN,77.3,4963.4,6886,5782
457,7-Eleven,7-Eleven,ChIJvS1_zrty2jERwdhlsu4H5BQ,1.4895676,103.7124878,7,JOHOR,JOHOR BAHRU,LARKIN,77.3,4963.4,6886,5782
458,7-Eleven,7-Eleven,ChIJZR3t7ply2jERzRbPPNjBe2k,1.4995132,103.7176749,7,JOHOR,JOHOR BAHRU,LARKIN,77.3,4963.4,6886,5782
558,CU,CU Kebun Teh Johor Bahru,ChIJY9gHObFt2jERTUESmgy-JmM,1.4856416,103.7539702,7,JOHOR,JOHOR BAHRU,LARKIN,77.3,4963.4,6886,5782
56,99 Speedmart,"KK SUPER MART Johor, Jalan Wong Ah Fook (JWAF)",ChIJ14bAaGQT2jERUj1iNBStMxs,1.4591726,103.7649642,8,JOHOR,PULAI,PERLING,139.4,3649.2,9373,6442
89,99 Speedmart,99 Speedmart 3183 (JH) Taman Tampoi Utama,ChIJF1CDzpNz2jERo09OI0KB8aQ,1.5036412,103.6853095,8,JOHOR,PULAI,PERLING,139.4,3649.2,9373,6442
90,99 Speedmart,99 Speedmart 2835 (JH) Taman Tampoi Indah,ChIJ8ZI3cjRz2jERkookk9xXXaE,1.5072521,103.6871745,8,JOHOR,PULAI,PERLING,139.4,3649.2,9373,6442
92,99 Speedmart,99 Speedmart 3114 (JH) Taman Tampoi Indah 2,ChIJbZY8VFxz2jERUa2_9ANIU04,1.5126012,103.6819451,8,JOHOR,PULAI,PERLING,139.4,3649.2,9373,6442
97,99 Speedmart,99 Speedmart 2815 (JH) Kampung Pasir,ChIJKTUvkr9z2jERNzTZQXCdlys,1.4948729,103.7025499,8,JOHOR,PULAI,PERLING,139.4,3649.2,9373,6442
99,99 Speedmart,99 Speedmart 2279 (JH) Taman Perling JB 2,ChIJSbYHuj5z2jERawxCTBE6uMU,1.4973969,103.6802953,8,JOHOR,PULAI,PERLING,139.4,3649.2,9373,6442
102,99 Speedmart,99 Speedmart 2760 (JH) Taman Perling JB 3,ChIJcUXrSKpz2jERDJBlUJNohUE,1.4937668,103.6795358,8,JOHOR,PULAI,PERLING,139.4,3649.2,9373,6442
104,99 Speedmart,99 Speedmart 3059 (JH) Kampung Skudai Kiri,ChIJ9dZ-HKRz2jERGpsW83IwoHw,1.4877362,103.7118379,8,JOHOR,PULAI,PERLING,139.4,3649.2,9373,6442
105,99 Speedmart,99 Speedmart 2890 (JH) Taman Nong Chik Heights,ChIJ2YEAQYcT2jERE8D7DKbkulk,1.4698179,103.7369955,8,JOHOR,PULAI,PERLING,139.4,3649.2,9373,6442
107,99 Speedmart,99 Speedmart 3552 (JH) Taman Tasek,ChIJN_ITGMBz2jERT4Cw1ZnrHxo,1.4863177,103.7231973,8,JOHOR,PULAI,PERLING,139.4,3649.2,9373,6442
116,99 Speedmart,99 Speedmart 3512 (JH) Jalan Meldrum,ChIJYfBD1EoT2jERyHrZxi0yp9Y,1.4592337,103.7654118,8,JOHOR,PULAI,PERLING,139.4,3649.2,9373,6442
142,99 Speedmart,99 Speedmart 2963 (JH) Bandar Uda Utama,ChIJq0xt6tdz2jERWiNizmpLFdI,1.4969389,103.6663227,8,JOHOR,PULAI,PERLING,139.4,3649.2,9373,6442
146,99 Speedmart,99 Speedmart 2731 (JH) Taman Nusa Bestari,ChIJgfgzF99z2jERZqc2QbaRluQ,1.493375,103.6531202,8,JOHOR,PULAI,PERLING,139.4,3649.2,9373,6442
152,99 Speedmart,99 Speedmart 3222 (JH) Taman Bukit Indah 4,ChIJwz21S1Zz2jERAk6HALJBPgI,1.4783733,103.6496445,8,JOHOR,PULAI,PERLING,139.4,3649.2,9373,6442
153,99 Speedmart,99 Speedmart 2875 (JH) Taman Bukit Indah 3,ChIJsamFfh5z2jERW6IZhvfRq_U,1.4802821,103.6636495,8,JOHOR,PULAI,PERLING,139.4,3649.2,9373,6442
154,99 Speedmart,99 Speedmart 3461 (JH) Taman Bukit Indah 5,ChIJn8Ls9c9z2jERruHmjHBvads,1.4849223,103.6481781,8,JOHOR,PULAI,PERLING,139.4,3649.2,9373,6442
155,99 Speedmart,99 Speedmart 2850 (JH) Taman Bukit Indah 2,ChIJERtIIXcN2jERKKLj8NRI58E,1.4693035,103.6471983,8,JOHOR,PULAI,PERLING,139.4,3649.2,9373,6442
156,99 Speedmart,99 Speedmart 3242 (JH) Taman Baiduri,ChIJW3vRZncN2jERxAtUdvN1ltU,1.4723352,103.6806608,8,JOHOR,PULAI,PERLING,139.4,3649.2,9373,6442
157,99 Speedmart,99 Speedmart 2108 (JH) Taman Perling JB,ChIJw6cILh4N2jERpU99pJcMaF8,1.4732864,103.6728016,8,JOHOR,PULAI,PERLING,139.4,3649.2,9373,6442
158,99 Speedmart,99 Speedmart 2126 (JH) Taman Bukit Indah,ChIJgeZtuvEN2jERuLdRFIMWxbs,1.4645531,103.654674,8,JOHOR,PULAI,PERLING,139.4,3649.2,9373,6442
159,99 Speedmart,99 Speedmart (JH) Taman Nusa Idaman,ChIJoRh5ZFoN2jER1botnlaIovc,1.4736541,103.6397299,8,JOHOR,PULAI,PERLING,139.4,3649.2,9373,6442
228,KK Super Mart,"KK Super Mart Johor, Jalan Skudai, Batu 4 (JSBE)",ChIJtzsHpdET2jERrBsQvA9vyic,1.4839227,103.7186863,8,JOHOR,PULAI,PERLING,139.4,3649.2,9373,6442
238,KK Super Mart,"KK SUPER MART Johor, Danga Bay (JDB)",ChIJ-UTIva8N2jERMzWB837tvtI,1.4651343,103.7264506,8,JOHOR,PULAI,PERLING,139.4,3649.2,9373,6442
239,KK Super Mart,"KK Super Mart Johor, Galleria ( JGLR )",ChIJmWCHiIsT2jER7BXqg1-sr20,1.4588505,103.7631703,8,JOHOR,PULAI,PERLING,139.4,3649.2,9373,6442
246,KK Super Mart,"KK Super Mart Johor, Taman Nusa Jaya Mas ( JNJM)",ChIJAYvqK-9z2jERSGKs4gN8Q40,1.4997898,103.6502398,8,JOHOR,PULAI,PERLING,139.4,3649.2,9373,6442
248,KK Super Mart,"KK Super Mart Johor, Pusat Perdagangan Danga Utama ( JDGU )",ChIJuZQGmotz2jERZqw-gF_KTP8,1.5196715,103.67916,8,JOHOR,PULAI,PERLING,139.4,3649.2,9373,6442
249,KK Super Mart,"KK Super Mart Johor, Taman Nusa Bestari ( JTNB )",ChIJl2twIktz2jERTgp0p37zz8s,1.4941607,103.6567348,8,JOHOR,PULAI,PERLING,139.4,3649.2,9373,6442
250,KK Super Mart,"KK SUPER MART Johor, Taman Bukit Indah(JTBI)",ChIJcXfdEotz2jERYwYzC2sqgHs,1.4793019,103.6504329,8,JOHOR,PULAI,PERLING,139.4,3649.2,9373,6442
251,KK Super Mart,KK SUPER MART TAMAN PERLING ( JTPL ),ChIJvdDQMCVz2jERArTLFR9AB4I,1.4807795,103.6837927,8,JOHOR,PULAI,PERLING,139.4,3649.2,9373,6442
252,KK Super Mart,"KK Super Mart Johor, Taman Bukit Indah (2) ( JBI2 )",ChIJfVo0mntz2jERtha6JNfISgk,1.4846905,103.6473405,8,JOHOR,PULAI,PERLING,139.4,3649.2,9373,6442
301,Family Mart,FamilyMart JB City Square,ChIJddPrVIgT2jERV588uwhQUFg,1.461799,103.7639603,8,JOHOR,PULAI,PERLING,139.4,3649.2,9373,6442
305,Family Mart,FamilyMart Taman Sutera,ChIJudYqectz2jERYgk2laXcawo,1.5143523,103.6688655,8,JOHOR,PULAI,PERLING,139.4,3649.2,9373,6442
307,Family Mart,FamilyMart Nusa Bestari,ChIJk3R7i1pz2jERwt3Km8N4CYw,1.4807294,103.6652951,8,JOHOR,PULAI,PERLING,139.4,3649.2,9373,6442
308,Family Mart,FamilyMart Caltex Taman Perling,ChIJS-KMjn4N2jERzBhrLbuY8Cs,1.4760497,103.6792995,8,JOHOR,PULAI,PERLING,139.4,3649.2,9373,6442
385,7-Eleven,7-Eleven,ChIJ__wBNaET2jERcSlldSTG4rA,1.4584263,103.7646143,8,JOHOR,PULAI,PERLING,139.4,3649.2,9373,6442
401,7-Eleven,7CAF??? by 7-Eleven Tampoi Indah (#570),ChIJQcXtVZZz2jERFRWy-hUh2dQ,1.5071782,103.6880548,8,JOHOR,PULAI,PERLING,139.4,3649.2,9373,6442
402,7-Eleven,7-Eleven,ChIJiSFJnzRz2jERXSgm35r_nmI,1.4790688,103.6648914,8,JOHOR,PULAI,PERLING,139.4,3649.2,9373,6442
404,7-Eleven,7-Eleven,ChIJAStLlNVy2jERon4jkexAU5Q,1.4809586,103.6839313,8,JOHOR,PULAI,PERLING,139.4,3649.2,9373,6442
416,7-Eleven,7-Eleven Persisiran Perling,ChIJB-PYgtZy2jER9ZBNL5Dgkd8,1.4825746,103.6861075,8,JOHOR,PULAI,PERLING,139.4,3649.2,9373,6442
417,7-Eleven,7-Eleven,ChIJt0uG5Dlz2jERvVikdtZ73Io,1.4970437,103.6676788,8,JOHOR,PULAI,PERLING,139.4,3649.2,9373,6442
420,7-Eleven,7-Eleven,ChIJUXwmP2lz2jERCerj2tJgDP0,1.500516,103.65203,8,JOHOR,PULAI,PERLING,139.4,3649.2,9373,6442
422,7-Eleven,7-Eleven,ChIJVTuhVztz2jER6OMbW4HHEQ0,1.4964264,103.6556156,8,JOHOR,PULAI,PERLING,139.4,3649.2,9373,6442
423,7-Eleven,7-Eleven,ChIJAQAAwENz2jERk4rDy0UHdFo,1.4932588,103.6579039,8,JOHOR,PULAI,PERLING,139.4,3649.2,9373,6442
426,7-Eleven,7-Eleven,ChIJ4Ufc-Wpz2jERTMcTY4-PQfM,1.4837618,103.7191331,8,JOHOR,PULAI,PERLING,139.4,3649.2,9373,6442
439,7-Eleven,7-Eleven,ChIJ-3m4FKsM2jERDOAMFm0dqt0,1.4765802,103.6405424,8,JOHOR,PULAI,PERLING,139.4,3649.2,9373,6442
442,7-Eleven,7-Eleven,ChIJ__bXvTNz2jERVNKpt5Xz9Zs,1.4810457,103.6666958,8,JOHOR,PULAI,PERLING,139.4,3649.2,9373,6442
443,7-Eleven,7-Eleven,ChIJ9RpUfLAM2jERvrJrWDzP0sY,1.4689404,103.6504505,8,JOHOR,PULAI,PERLING,139.4,3649.2,9373,6442
444,7-Eleven,7-Eleven,ChIJ6UlGubYM2jER3JghqR5FOvs,1.4722469,103.6546719,8,JOHOR,PULAI,PERLING,139.4,3649.2,9373,6442
447,7-Eleven,7-Eleven,ChIJH0Jg1jlz2jER1v-62GRkmP4,1.4873973,103.6627677,8,JOHOR,PULAI,PERLING,139.4,3649.2,9373,6442
448,7-Eleven,7-Eleven 2896,ChIJ90Pk8-YN2jERtTYMcvp6SGQ,1.4732394,103.6745643,8,JOHOR,PULAI,PERLING,139.4,3649.2,9373,6442
450,7-Eleven,7-Eleven,ChIJd2FCnMQS2jER3mRV2W3xpxI,1.4634405,103.7619414,8,JOHOR,PULAI,PERLING,139.4,3649.2,9373,6442
453,7-Eleven,7-Eleven,ChIJ53sOk64S2jERKpCT71Rgr5s,1.4715846,103.7365577,8,JOHOR,PULAI,PERLING,139.4,3649.2,9373,6442
477,7-Eleven,7-Eleven,ChIJFQcSJ01z2jERWDFZ155yvg8,1.4787645,103.6507974,8,JOHOR,PULAI,PERLING,139.4,3649.2,9373,6442
479,7-Eleven,7-Eleven,ChIJNUkb0VFz2jER32FO-oXubrA,1.484581,103.647353,8,JOHOR,PULAI,PERLING,139.4,3649.2,9373,6442
524,MyNews,"myNEWS (Maru Kafe) @ KPJ Johor Specialist Hospital, Johor Bharu",ChIJ_-lYLVkT2jERi_NkVypqRJ4,1.4759472,103.7413035,8,JOHOR,PULAI,PERLING,139.4,3649.2,9373,6442
527,MyNews,"myNEWS (Maru Kafe) @ Fives Hotel, JBCC",ChIJrWbTZRQT2jER7W--WTCeiwI,1.4639523,103.7619638,8,JOHOR,PULAI,PERLING,139.4,3649.2,9373,6442
528,MyNews,myNEWS @ Baypoint Shopping Mall (G Floor),ChIJQaRnE_YN2jER0aDodbQYeyI,1.4642997,103.7289788,8,JOHOR,PULAI,PERLING,139.4,3649.2,9373,6442
529,MyNews,myNEWS @ Komtar JBCC (G Floor),ChIJwdtlkD8T2jERgUL8zuCL-s4,1.4626269,103.7630693,8,JOHOR,PULAI,PERLING,139.4,3649.2,9373,6442
536,MyNews,myNEWS lotus Bukit Indah (1st Floor),ChIJW0xLMDRz2jERqyQdvQrX3Rw,1.481873,103.662865,8,JOHOR,PULAI,PERLING,139.4,3649.2,9373,6442
537,MyNews,myNEWS @ AEON Bukit Indah (G Floor),ChIJRXm-hRZz2jERDNm6StebOSA,1.481769,103.6558436,8,JOHOR,PULAI,PERLING,139.4,3649.2,9373,6442
562,CU,CU Mart Taman Perling,ChIJ2bFZ0Ctz2jER_Qzxnk1Kvuc,1.4821153,103.6848805,8,JOHOR,PULAI,PERLING,139.4,3649.2,9373,6442
145,99 Speedmart,99 Speedmart 2346 (JH) Taman Skudai Indah,ChIJPUexhgh12jER2_WeQuWHmz0,1.532589,103.6335787,9,JOHOR,ISKANDAR PUTERI,ISKANDAR PUTERI,19.1,1210.4,8928,6726
148,99 Speedmart,99 Speedmart 2112 (JH) Taman Mutiara Rini,ChIJnZjM_lJ12jERmGdP31ugl5s,1.5225833,103.6358889,9,JOHOR,ISKANDAR PUTERI,ISKANDAR PUTERI,19.1,1210.4,8928,6726
160,99 Speedmart,99 Speedmart 2200 (JH) Tmn Universiti Skudai 1,ChIJ85Z4yE112jERkpRewuz_IQU,1.5300833,103.6202222,9,JOHOR,ISKANDAR PUTERI,ISKANDAR PUTERI,19.1,1210.4,8928,6726
167,99 Speedmart,99 Speedmart 3601 (JH) Taman Sri Pulai Perdana 2,ChIJp5zxfvZ32jERKsV7M9oOF8s,1.5619959,103.6141063,9,JOHOR,ISKANDAR PUTERI,ISKANDAR PUTERI,19.1,1210.4,8928,6726
168,99 Speedmart,99 Speedmart 3191 (JH) Taman Pulai Utama,ChIJW11dthN12jERsJHPbP_rPFg,1.5447932,103.6245818,9,JOHOR,ISKANDAR PUTERI,ISKANDAR PUTERI,19.1,1210.4,8928,6726
171,99 Speedmart,99 Speedmart 2528 (JH) Taman Universiti Skudai 2,ChIJE8_8Lf512jERvVZyYfacl74,1.5391096,103.6303502,9,JOHOR,ISKANDAR PUTERI,ISKANDAR PUTERI,19.1,1210.4,8928,6726
173,99 Speedmart,99 Speedmart 2222 (JH) Taman Mutiara Mas,ChIJZ_D-PbZ12jER1CiazBcYyzc,1.512863,103.6296025,9,JOHOR,ISKANDAR PUTERI,ISKANDAR PUTERI,19.1,1210.4,8928,6726
174,99 Speedmart,99 Speedmart 3303 (JH) Taman Prmh Rakyat Lima Kedai,ChIJvb8EynN12jERh9-GLA4U7QU,1.5048459,103.6215455,9,JOHOR,ISKANDAR PUTERI,ISKANDAR PUTERI,19.1,1210.4,8928,6726
178,99 Speedmart,99 Speedmart 3196 (JH) Taman Mutiara Rini 3,ChIJP4jwQZp12jER0OrresgEp04,1.4952097,103.61675,9,JOHOR,ISKANDAR PUTERI,ISKANDAR PUTERI,19.1,1210.4,8928,6726
180,99 Speedmart,99 Speedmart 3320 (JH) Taman Nusa Sentral 2,ChIJk0vA83UL2jERSXxXU2f_5cA,1.4707158,103.6159228,9,JOHOR,ISKANDAR PUTERI,ISKANDAR PUTERI,19.1,1210.4,8928,6726
181,99 Speedmart,99 Speedmart 2247 (JH) Taman Nusa Sentral,ChIJC_TL3k4L2jERJG2vMsxeSLQ,1.4687683,103.6245979,9,JOHOR,ISKANDAR PUTERI,ISKANDAR PUTERI,19.1,1210.4,8928,6726
182,99 Speedmart,99 Speedmart 2127 (JH) Taman Nusa Bayu,ChIJNyT1DXV12jERJ-A7FEmECCo,1.4797542,103.6032159,9,JOHOR,ISKANDAR PUTERI,ISKANDAR PUTERI,19.1,1210.4,8928,6726
183,99 Speedmart,99 Speedmart 2930 (JH) Horizon Hills,ChIJ67iRcN4L2jERvCIElf97lpM,1.4635605,103.6239385,9,JOHOR,ISKANDAR PUTERI,ISKANDAR PUTERI,19.1,1210.4,8928,6726
184,99 Speedmart,99 Speedmart 2490 (JH) Taman Eko Botani,ChIJNftJZrcL2jER8EhUWvhX3rc,1.4399246,103.6186247,9,JOHOR,ISKANDAR PUTERI,ISKANDAR PUTERI,19.1,1210.4,8928,6726
185,99 Speedmart,99 Speedmart 2764 (JH) Nusa Puncak,ChIJQ5QoOywL2jERLNZzR5g010w,1.4418607,103.5981349,9,JOHOR,ISKANDAR PUTERI,ISKANDAR PUTERI,19.1,1210.4,8928,6726
186,99 Speedmart,99 Speedmart 2400 (JH) Taman Denai Nusantara,ChIJQZ0UwUIL2jERLofZfpNlDqQ,1.4436097,103.5886944,9,JOHOR,ISKANDAR PUTERI,ISKANDAR PUTERI,19.1,1210.4,8928,6726
187,99 Speedmart,99 Speedmart 3362 (JH) Puteri Harbour,ChIJ4UzO228N2jERAgmWjhd08n8,1.4158869,103.6527439,9,JOHOR,ISKANDAR PUTERI,ISKANDAR PUTERI,19.1,1210.4,8928,6726
188,99 Speedmart,99 Speedmart 3558 (JH) Laman Niaga Sunway,ChIJw6hFGwAJ2jERRiMhhsHqZRY,1.3940186,103.6351354,9,JOHOR,ISKANDAR PUTERI,ISKANDAR PUTERI,19.1,1210.4,8928,6726
190,99 Speedmart,99 Speedmart Gerbang Nusajaya,ChIJQw6aAf8L2jERIe6iwwl_EpI,1.4196928,103.5928925,9,JOHOR,ISKANDAR PUTERI,ISKANDAR PUTERI,19.1,1210.4,8928,6726
191,99 Speedmart,99 Speedmart 2715 (JH) Pusat Komersil Visi Medini,ChIJIUo1xsL7yjERTG2S809TjdA,1.4174532,103.6221944,9,JOHOR,ISKANDAR PUTERI,ISKANDAR PUTERI,19.1,1210.4,8928,6726
199,99 Speedmart,99 Speedmart 2229 (JH) Taman Pulai Indah,ChIJeWFyavF12jERvfgfqlRUhf4,1.5446979,103.5839653,9,JOHOR,ISKANDAR PUTERI,ISKANDAR PUTERI,19.1,1210.4,8928,6726
200,99 Speedmart,99 Speedmart 2722 (JH) Taman Pulai Mutiara,ChIJ5eVyeXF12jER3u4_Un-two8,1.5262541,103.5828655,9,JOHOR,ISKANDAR PUTERI,ISKANDAR PUTERI,19.1,1210.4,8928,6726
201,99 Speedmart,99 Speedmart 2107 (JH) Taman Laman Setia,ChIJTbwHf8J12jERv-vE5E8VK3g,1.4914444,103.5863056,9,JOHOR,ISKANDAR PUTERI,ISKANDAR PUTERI,19.1,1210.4,8928,6726
202,99 Speedmart,99 Speedmart 2130 (JH) Taman Nusantara,ChIJK_GOMhkL2jERVxK0bqJ1Www,1.4566944,103.5814323,9,JOHOR,ISKANDAR PUTERI,ISKANDAR PUTERI,19.1,1210.4,8928,6726
204,99 Speedmart,99 Speedmart 2819 (JH) Taman Nusa Perintis,ChIJLYg_ZpIL2jERGOH7WgCLjAs,1.4569799,103.5954055,9,JOHOR,ISKANDAR PUTERI,ISKANDAR PUTERI,19.1,1210.4,8928,6726
205,99 Speedmart,99 Speedmart 2937 (JH) Taman Perindustrian Tanjung Pelepas,ChIJyzSU1LwJ2jERipPRB3joq_A,1.3658923,103.5673628,9,JOHOR,ISKANDAR PUTERI,ISKANDAR PUTERI,19.1,1210.4,8928,6726
206,99 Speedmart,99 Speedmart 3471 (JH) Desa Paya Mengkuang,ChIJXcoJBr8J2jERxDEeJ66541w,1.3768452,103.5910639,9,JOHOR,ISKANDAR PUTERI,ISKANDAR PUTERI,19.1,1210.4,8928,6726
256,KK Super Mart,"KK SUPER MART JOHOR, SKUDAI TAMAN UNIVERSITI(JSTU)",ChIJV34sEZl12jERRs0iGGNQcOk,1.5392988,103.6284817,9,JOHOR,ISKANDAR PUTERI,ISKANDAR PUTERI,19.1,1210.4,8928,6726
257,KK Super Mart,"KK Super Mart Johor, Skudai, Taman Sri Pulai Perdana ( JSPP)",ChIJ1_WOB6B32jERo1Hew_SY2Fc,1.5624344,103.6134002,9,JOHOR,ISKANDAR PUTERI,ISKANDAR PUTERI,19.1,1210.4,8928,6726
258,KK Super Mart,"KK Super Mart Johor, Taman Pulai Utama ( JTPU)",ChIJOZU_DLV12jERQ_1a8omgi8I,1.545248,103.6240319,9,JOHOR,ISKANDAR PUTERI,ISKANDAR PUTERI,19.1,1210.4,8928,6726
263,KK Super Mart,"KK Super Mart Johor, Taman Pulai Indah ( JTPI )",ChIJ38wDkZ512jERsq-kJezvuxQ,1.5435119,103.5836573,9,JOHOR,ISKANDAR PUTERI,ISKANDAR PUTERI,19.1,1210.4,8928,6726
264,KK Super Mart,"KK Super Mart Johor, Taman Pulai Mutiara ( JTPM )",ChIJef0i_wx12jERGpQHtc-_Qxk,1.5272656,103.5819717,9,JOHOR,ISKANDAR PUTERI,ISKANDAR PUTERI,19.1,1210.4,8928,6726
265,KK Super Mart,"KK Super Mart Johor, Setia Eco Gardens (JSEG)",ChIJ8X490MB12jERrAp_zw7m9II,1.4900454,103.5854477,9,JOHOR,ISKANDAR PUTERI,ISKANDAR PUTERI,19.1,1210.4,8928,6726
266,KK Super Mart,"KK SUPER MART Johor, Taman Nusa Perintis (JNSP)",ChIJ2xRMD0sL2jERI5WXICW30XU,1.4503584,103.5955069,9,JOHOR,ISKANDAR PUTERI,ISKANDAR PUTERI,19.1,1210.4,8928,6726
267,KK Super Mart,"KK SUPER MART Johor, Taman Nusantara (JNS)",ChIJRV7wXJIL2jERNkGOvaGldPc,1.4587323,103.584464,9,JOHOR,ISKANDAR PUTERI,ISKANDAR PUTERI,19.1,1210.4,8928,6726
268,Family Mart,FamilyMart Eco Botanic,ChIJm4jvnjoL2jERXoSPUFfiNsw,1.4392556,103.62022,9,JOHOR,ISKANDAR PUTERI,ISKANDAR PUTERI,19.1,1210.4,8928,6726
313,Family Mart,FamilyMart Taman University,ChIJeR7M_2912jERveEvycFsdOA,1.5437598,103.6302155,9,JOHOR,ISKANDAR PUTERI,ISKANDAR PUTERI,19.1,1210.4,8928,6726
316,Family Mart,FamilyMart Caltex Nusa Sentral,ChIJMzLcpUEL2jERTkt1jrnIifM,1.4648485,103.6228648,9,JOHOR,ISKANDAR PUTERI,ISKANDAR PUTERI,19.1,1210.4,8928,6726
317,7-Eleven,7-Eleven,ChIJpU1oq-MN2jERonF_Hv_FMRs,1.4584452,103.6442568,9,JOHOR,ISKANDAR PUTERI,ISKANDAR PUTERI,19.1,1210.4,8928,6726
322,Family Mart,FamilyMart Petron Taman Prima,ChIJx-s4ZL0L2jERP0nLxTNqGAE,1.4775715,103.583163,9,JOHOR,ISKANDAR PUTERI,ISKANDAR PUTERI,19.1,1210.4,8928,6726
323,Family Mart,FamilyMart Gelang Patah,ChIJZSvX-uwL2jERXMx2E8JBk_M,1.4610675,103.5841078,9,JOHOR,ISKANDAR PUTERI,ISKANDAR PUTERI,19.1,1210.4,8928,6726
324,Family Mart,FamilyMart Caltex Sunway Iskandar,ChIJTfl7l28J2jER1drrCWNNYa4,1.3966011,103.6311412,9,JOHOR,ISKANDAR PUTERI,ISKANDAR PUTERI,19.1,1210.4,8928,6726
326,7-Eleven,7-Eleven (Cafe) Eco Botanic 3/3,ChIJjY5gy50L2jERg_LMH5SZMaI,1.4382124,103.6200062,9,JOHOR,ISKANDAR PUTERI,ISKANDAR PUTERI,19.1,1210.4,8928,6726
329,CU,CU Eco Botanic,ChIJsdeoAZwL2jERiZy4PE9xck8,1.4390764,103.6205212,9,JOHOR,ISKANDAR PUTERI,ISKANDAR PUTERI,19.1,1210.4,8928,6726
434,7-Eleven,7CAF??? by 7-Eleven Mutiara Square (#2497),ChIJQwsAexpz2jERXhK2fwGaSic,1.5222246,103.6362849,9,JOHOR,ISKANDAR PUTERI,ISKANDAR PUTERI,19.1,1210.4,8928,6726
436,7-Eleven,7-Eleven,ChIJ3fRB3Q502jERxhKflx0OmZI,1.5411058,103.6291353,9,JOHOR,ISKANDAR PUTERI,ISKANDAR PUTERI,19.1,1210.4,8928,6726
437,7-Eleven,7-Eleven,ChIJ89FzGCZ12jERc8q0EppjgGU,1.5132012,103.6298171,9,JOHOR,ISKANDAR PUTERI,ISKANDAR PUTERI,19.1,1210.4,8928,6726
438,7-Eleven,7-Eleven,ChIJMwSUthp02jEROSBLfzsfmhk,1.545103,103.6242599,9,JOHOR,ISKANDAR PUTERI,ISKANDAR PUTERI,19.1,1210.4,8928,6726
445,7-Eleven,7-Eleven,ChIJLzp2BwcL2jER0t8iDvss9kM,1.4422268,103.5982281,9,JOHOR,ISKANDAR PUTERI,ISKANDAR PUTERI,19.1,1210.4,8928,6726
446,7-Eleven,7-Eleven @ Taman GP Prima,ChIJqYWaNNMK2jERwcaZOMQmJKU,1.4785207,103.5825032,9,JOHOR,ISKANDAR PUTERI,ISKANDAR PUTERI,19.1,1210.4,8928,6726
449,7-Eleven,7-Eleven,ChIJ27ldcv0L2jERpamcQb67sNU,1.4681054,103.616793,9,JOHOR,ISKANDAR PUTERI,ISKANDAR PUTERI,19.1,1210.4,8928,6726
471,7-Eleven,7-Eleven,ChIJAz2sCd4K2jERmjwfD_Wz9Qc,1.4602938,103.5842167,9,JOHOR,ISKANDAR PUTERI,ISKANDAR PUTERI,19.1,1210.4,8928,6726
472,7-Eleven,7CAF??? by 7-Eleven Jalan Pulai Makmur (#3124),ChIJlX40hUx32jERrWOH18HMwHQ,1.5547801,103.5805266,9,JOHOR,ISKANDAR PUTERI,ISKANDAR PUTERI,19.1,1210.4,8928,6726
473,7-Eleven,7CAF??? by 7-Eleven Jalan Pulai Mutiara (#3097),ChIJxbxYQQB12jERbtRxXZlI9F4,1.5277889,103.5829884,9,JOHOR,ISKANDAR PUTERI,ISKANDAR PUTERI,19.1,1210.4,8928,6726
474,7-Eleven,7-Eleven,ChIJex7AxBx02jERonlLIHr7GCM,1.5504259,103.623705,9,JOHOR,ISKANDAR PUTERI,ISKANDAR PUTERI,19.1,1210.4,8928,6726
475,7-Eleven,7-Eleven,ChIJS2VOSuYK2jERULhTzatB6YE,1.4570315,103.5800839,9,JOHOR,ISKANDAR PUTERI,ISKANDAR PUTERI,19.1,1210.4,8928,6726
476,7-Eleven,7-Eleven,ChIJn4BS3CZ12jERjylcE5ViGLo,1.4915649,103.5865402,9,JOHOR,ISKANDAR PUTERI,ISKANDAR PUTERI,19.1,1210.4,8928,6726
478,7-Eleven,7CAF??? Plus by 7-Eleven Aspira Garden (#3128),ChIJt3DGRWoL2jER0QobeyZK-Dw,1.4201357,103.5933643,9,JOHOR,ISKANDAR PUTERI,ISKANDAR PUTERI,19.1,1210.4,8928,6726
480,7-Eleven,7CAF??? by 7-Eleven Edu City Eco World (#2517),ChIJA1pM1CEL2jERTqxmdDCuGT8,1.4379097,103.6198875,9,JOHOR,ISKANDAR PUTERI,ISKANDAR PUTERI,19.1,1210.4,8928,6726
481,7-Eleven,7CAF??? by 7-Eleven Pusat Komersial Visi Medini (#3131),ChIJC1veWyoL2jERBW5Sgm0AF8s,1.4170995,103.6224769,9,JOHOR,ISKANDAR PUTERI,ISKANDAR PUTERI,19.1,1210.4,8928,6726
492,7-Eleven,7-Eleven store,ChIJ2XnCMQAL2jERZ21z1JUYc90,1.4715807,103.5841604,9,JOHOR,ISKANDAR PUTERI,ISKANDAR PUTERI,19.1,1210.4,8928,6726
494,7-Eleven,7-Eleven,ChIJK_73tdN02jERqrIP97_yjEo,1.4817781,103.5983372,9,JOHOR,ISKANDAR PUTERI,ISKANDAR PUTERI,19.1,1210.4,8928,6726
495,7-Eleven,7-Eleven,ChIJxXCCUgML2jERXkhKLkPzOBc,1.4503636,103.5950418,9,JOHOR,ISKANDAR PUTERI,ISKANDAR PUTERI,19.1,1210.4,8928,6726
497,7-Eleven,7-Eleven,ChIJhQAXCQAL2jERfXmLBMa-AMg,1.420182,103.592973,9,JOHOR,ISKANDAR PUTERI,ISKANDAR PUTERI,19.1,1210.4,8928,6726
498,7-Eleven,7-Eleven,ChIJa_zv5GcL2jERpVx6ccR6x9U,1.4136078,103.6281429,9,JOHOR,ISKANDAR PUTERI,ISKANDAR PUTERI,19.1,1210.4,8928,6726
505,7-Eleven,7-Eleven,ChIJ394fGs512jERKq0NDbbqfqI,1.5439181,103.5830496,9,JOHOR,ISKANDAR PUTERI,ISKANDAR PUTERI,19.1,1210.4,8928,6726
506,7-Eleven,7-Eleven,ChIJdfoXpSZ12jERn25z0d1zUfo,1.5355587,103.5811371,9,JOHOR,ISKANDAR PUTERI,ISKANDAR PUTERI,19.1,1210.4,8928,6726
507,7-Eleven,7-Eleven,ChIJT3tHNcgL2jEROwT4zES-ec0,1.4322684,103.6169301,9,JOHOR,ISKANDAR PUTERI,ISKANDAR PUTERI,19.1,1210.4,8928,6726
508,7-Eleven,7-Eleven,ChIJO8KskIkL2jERyBFlzx2d0MQ,1.4275207,103.6343323,9,JOHOR,ISKANDAR PUTERI,ISKANDAR PUTERI,19.1,1210.4,8928,6726
540,MyNews,myNEWS @ AEON Taman University (LG Floor),ChIJYXaqPQ902jERw1cAID0cE5s,1.542363,103.629202,9,JOHOR,ISKANDAR PUTERI,ISKANDAR PUTERI,19.1,1210.4,8928,6726
541,MyNews,myNEWS (Maru Kafe) @ Teega Puteri Harbour (G Floor),ChIJ3TSN090N2jERYJldbBte3tc,1.4135269,103.6542081,9,JOHOR,ISKANDAR PUTERI,ISKANDAR PUTERI,19.1,1210.4,8928,6726
542,MyNews,myNEWS @ Little Red Cube ( G Floor ),ChIJbzY_VDsN2jERp8aKQ3pMznE,1.4173864,103.6565635,9,JOHOR,ISKANDAR PUTERI,ISKANDAR PUTERI,19.1,1210.4,8928,6726
544,MyNews,myNEWS @ Taman Nusantara,ChIJxQ3u_90K2jERpRVZZqsLb2o,1.4595673,103.5839732,9,JOHOR,ISKANDAR PUTERI,ISKANDAR PUTERI,19.1,1210.4,8928,6726
545,MyNews,myNEWS @ Taman Nusa Puncak,ChIJi4-HquUL2jER5FVzO9qDUK8,1.442142,103.598207,9,JOHOR,ISKANDAR PUTERI,ISKANDAR PUTERI,19.1,1210.4,8928,6726
546,MyNews,myNEWS @ Puteri Cove Quayside (LG Floor),ChIJOXUo7l0N2jERySiKgXwj3Zg,1.4121488,103.65626,9,JOHOR,ISKANDAR PUTERI,ISKANDAR PUTERI,19.1,1210.4,8928,6726
547,MyNews,myNEWS @ Medini Mall (G Floor),ChIJHbdM1KML2jER1b5J60lPoTw,1.4285273,103.6335082,9,JOHOR,ISKANDAR PUTERI,ISKANDAR PUTERI,19.1,1210.4,8928,6726
548,MyNews,myNEWS @ Sunway Big Box,ChIJ-6zXfuYJ2jERfZl_Fg_EyDM,1.3973875,103.6300544,9,JOHOR,ISKANDAR PUTERI,ISKANDAR PUTERI,19.1,1210.4,8928,6726
549,MyNews,myNEWS @ Pusat Komersial Sunway Marketplace,ChIJD2Hi8p4J2jERJwTfEhch7dY,1.3968784,103.6306476,9,JOHOR,ISKANDAR PUTERI,ISKANDAR PUTERI,19.1,1210.4,8928,6726
550,MyNews,myNEWS @ PLUS R&R Gelang Patah (Southbound),ChIJv2SWpg1D0DERnM03LWdO-gs,1.3884202,103.5936231,9,JOHOR,ISKANDAR PUTERI,ISKANDAR PUTERI,19.1,1210.4,8928,6726
551,MyNews,myNEWS @ PLUS R&R Gelang Patah (Northbound),ChIJkzfCqtHJ0TERZDgjD40Bmso,1.3984126,103.586473,9,JOHOR,ISKANDAR PUTERI,ISKANDAR PUTERI,19.1,1210.4,8928,6726
565,CU,"CU Mart @ 68 Avenue, Suria Commercial, Nusa Perintis",ChIJ_5fguZEL2jERC5kcm-J2A-w,1.4556174,103.5989945,9,JOHOR,ISKANDAR PUTERI,ISKANDAR PUTERI,19.1,1210.4,8928,6726
170,99 Speedmart,99 Speedmart 2482 (JH) Taman Pulai Flora,ChIJr_LogdN12jERm6m0DNLBUT0,1.5516978,103.6249265,3,JOHOR,PULAI,KEMPAS,59.1,4862.8,6284,4709
115,99 Speedmart,99 Speedmart 2662 (JH) De'Stulang,ChIJ509pMP0T2jERsJMJifzflzg,1.4700338,103.7813449,2,JOHOR,JOHOR BAHRU,STULANG,101.3,5237,6353,5516
203,99 Speedmart,99 Speedmart 3371 (JH) Taman GP Prima,ChIJjdj3jvB12jER1v3cWqnPgLY,1.4793531,103.582919,9,JOHOR,ISKANDAR PUTERI,ISKANDAR PUTERI,19.1,1210.4,8928,6726
208,99 Speedmart,99 Speedmart 3638 (JH) Forest City,ChIJ7_rydU4J2jERDntdpj7smQo,1.3417214,103.5947814,9,JOHOR,ISKANDAR PUTERI,ISKANDAR PUTERI,19.1,1210.4,8928,6726
271,KK Super Mart,"KK Super Mart Johor, Forest City 1 (JFC2)",ChIJjVbP1ssL2jERqlytQPB6Wds,1.334931,103.5912298,9,JOHOR,ISKANDAR PUTERI,ISKANDAR PUTERI,19.1,1210.4,8928,6726
272,KK Super Mart,"KK Super Mart Johor, Forest City 5 (JFC3)",ChIJ-yG1ZCcJ2jERYjeMyq5mnUM,1.3415065,103.5939196,9,JOHOR,ISKANDAR PUTERI,ISKANDAR PUTERI,19.1,1210.4,8928,6726
273,KK Super Mart,"KK Super Mart Johor, Forest City 5 (4) (JFC 4)",ChIJd5QCw9YJ2jERMbvNDN2fZW0,1.3382805,103.5903104,9,JOHOR,ISKANDAR PUTERI,ISKANDAR PUTERI,19.1,1210.4,8928,6726
274,KK Super Mart,"KK Concept Store Johor, Forest City 1 ( JFC1)",ChIJt-rJAIgJ2jER8NtCew6rPvE,1.3344691,103.5914187,9,JOHOR,ISKANDAR PUTERI,ISKANDAR PUTERI,19.1,1210.4,8928,6726
409,7-Eleven,7-Eleven,ChIJD1FwKy8T2jERJgu3cRuSiD0,1.469798,103.7812028,2,JOHOR,JOHOR BAHRU,STULANG,101.3,5237,6353,5516
424,7-Eleven,7CAF??? by 7-Eleven Berjaya Waterfront Johor (#3186),ChIJl_2ZBqIT2jERB8Wxil-oV5g,1.4719504,103.7823254,2,JOHOR,JOHOR BAHRU,STULANG,101.3,5237,6353,5516
538,MyNews,myNEWS (Maru Kafe) @ Jalan Trus JB,ChIJWxlFOmMT2jEREu5FSWZYpXo,1.4567345,103.7644588,8,JOHOR,PULAI,PERLING,139.4,3649.2,9373,6442
